<propertys>
<property>
  <property_id>47379</property_id>
  <lat>-37.714382</lat>
  <lng>145.14271000000005</lng>
  <addr_street>6 Tanya Way</addr_street>
</property>
<property>
  <property_id>9996</property_id>
  <lat>-37.781423</lat>
  <lng>144.92801699999995</lng>
  <addr_street>12 Dalgleish Street</addr_street>
</property>
<property>
  <property_id>56428</property_id>
  <lat>-37.847315</lat>
  <lng>145.12573799999996</lng>
  <addr_street>24 Christina St</addr_street>
</property>
<property>
  <property_id>2424</property_id>
  <lat>-37.819282</lat>
  <lng>144.843502</lng>
  <addr_street>64 Corrigan Avenue</addr_street>
</property>
<property>
  <property_id>75711</property_id>
  <lat>-37.895457</lat>
  <lng>145.101846</lng>
  <addr_street>13 Winifred Street</addr_street>
</property>
<property>
  <property_id>22592</property_id>
  <lat>-37.738934</lat>
  <lng>144.96258999999995</lng>
  <addr_street>31 Main Street</addr_street>
</property>
<property>
  <property_id>70187</property_id>
  <lat>-37.872489</lat>
  <lng>145.10914499999996</lng>
  <addr_street>55 Salisbury Road</addr_street>
</property>
<property>
  <property_id>9684</property_id>
  <lat>-37.85261720000001</lat>
  <lng>144.7342274</lng>
  <addr_street>852 Goldsborough Road</addr_street>
</property>
<property>
  <property_id>66034</property_id>
  <lat>-37.771923</lat>
  <lng>145.326999</lng>
  <addr_street>22 Nambour Drive</addr_street>
</property>
<property>
  <property_id>71631</property_id>
  <lat>-37.86271286</lat>
  <lng>145.2176209</lng>
  <addr_street>5 The Rise</addr_street>
</property>
<property>
  <property_id>11890</property_id>
  <lat>-37.714801</lat>
  <lng>144.82391</lng>
  <addr_street>59 Hopkins Avenue</addr_street>
</property>
<property>
  <property_id>29110</property_id>
  <lat>-37.801696</lat>
  <lng>144.99655</lng>
  <addr_street>71 Studley Street</addr_street>
</property>
<property>
  <property_id>66782</property_id>
  <lat>-37.786138</lat>
  <lng>145.317037</lng>
  <addr_street>96 Brice Avenue</addr_street>
</property>
<property>
  <property_id>1162</property_id>
  <lat>-37.79719543</lat>
  <lng>144.88261409999996</lng>
  <addr_street>52 Dudley Street</addr_street>
</property>
<property>
  <property_id>10197</property_id>
  <lat>-37.79032</lat>
  <lng>144.932375</lng>
  <addr_street>2 Barnett Street</addr_street>
</property>
<property>
  <property_id>84013</property_id>
  <lat>-37.85168076</lat>
  <lng>145.006897</lng>
  <addr_street>42 Chatsworth Road</addr_street>
</property>
<property>
  <property_id>1340</property_id>
  <lat>-37.80435944</lat>
  <lng>144.891449</lng>
  <addr_street>7 Alexander Street</addr_street>
</property>
<property>
  <property_id>19487</property_id>
  <lat>-37.663648</lat>
  <lng>144.929849</lng>
  <addr_street>7 WIMBA COURT</addr_street>
</property>
<property>
  <property_id>38734</property_id>
  <lat>-37.757083</lat>
  <lng>145.041654</lng>
  <addr_street>211 Banksia Street</addr_street>
</property>
<property>
  <property_id>26968</property_id>
  <lat>-37.580572</lat>
  <lng>144.928731</lng>
  <addr_street>44 Hyde Park Drive</addr_street>
</property>
<property>
  <property_id>19637</property_id>
  <lat>-37.677577</lat>
  <lng>144.894273</lng>
  <addr_street>2/30 Pascoe Street</addr_street>
</property>
<property>
  <property_id>27217</property_id>
  <lat>-37.584697</lat>
  <lng>144.913106</lng>
  <addr_street>51 Kinglake Crescent</addr_street>
</property>
<property>
  <property_id>30210</property_id>
  <lat>-37.774139</lat>
  <lng>145.002809</lng>
  <addr_street>53 Bastings Street</addr_street>
</property>
<property>
  <property_id>88371</property_id>
  <lat>-37.952819</lat>
  <lng>145.049802</lng>
  <addr_street>1/6 Alfred Street</addr_street>
</property>
<property>
  <property_id>65933</property_id>
  <lat>-37.760395</lat>
  <lng>145.319948</lng>
  <addr_street>2 Deepdale Grove</addr_street>
</property>
<property>
  <property_id>49455</property_id>
  <lat>-37.809064</lat>
  <lng>145.086677</lng>
  <addr_street>38 Linckens Crescent</addr_street>
</property>
<property>
  <property_id>67661</property_id>
  <lat>-37.745033</lat>
  <lng>145.364815</lng>
  <addr_street>7 Neptune Court</addr_street>
</property>
<property>
  <property_id>35259</property_id>
  <lat>-37.70579147</lat>
  <lng>144.9955139</lng>
  <addr_street>59 Elliot Street</addr_street>
</property>
<property>
  <property_id>67115</property_id>
  <lat>-37.774375</lat>
  <lng>145.330679</lng>
  <addr_street>17 Park Lane</addr_street>
</property>
<property>
  <property_id>62488</property_id>
  <lat>-37.830422</lat>
  <lng>145.25067</lng>
  <addr_street>10 The Boulevard</addr_street>
</property>
<property>
  <property_id>51597</property_id>
  <lat>-37.792653</lat>
  <lng>145.14236</lng>
  <addr_street>67 Wetherby Road</addr_street>
</property>
<property>
  <property_id>63450</property_id>
  <lat>-37.7861405</lat>
  <lng>145.2815062</lng>
  <addr_street>12 Grandview Avenue</addr_street>
</property>
<property>
  <property_id>66889</property_id>
  <lat>-37.760858</lat>
  <lng>145.365615</lng>
  <addr_street>100 BASTOW ROAD</addr_street>
</property>
<property>
  <property_id>44446</property_id>
  <lat>-37.6965983</lat>
  <lng>145.13415580000003</lng>
  <addr_street>18 Stuart Street</addr_street>
</property>
<property>
  <property_id>44028</property_id>
  <lat>-37.702661</lat>
  <lng>145.096284</lng>
  <addr_street>1/47 Lorimer Street</addr_street>
</property>
<property>
  <property_id>43136</property_id>
  <lat>-37.72048</lat>
  <lng>145.106989</lng>
  <addr_street>4 Lowan Avenue</addr_street>
</property>
<property>
  <property_id>15658</property_id>
  <lat>-37.738324</lat>
  <lng>144.885826</lng>
  <addr_street>28 Hamilton Street</addr_street>
</property>
<property>
  <property_id>87638</property_id>
  <lat>-37.932208</lat>
  <lng>145.00206799999995</lng>
  <addr_street>33 Avondale Street</addr_street>
</property>
<property>
  <property_id>36996</property_id>
  <lat>-37.643611</lat>
  <lng>145.056589</lng>
  <addr_street>2 Carousel Court</addr_street>
</property>
<property>
  <property_id>22703</property_id>
  <lat>-37.738713</lat>
  <lng>144.95299599999996</lng>
  <addr_street>38 Soudan Street</addr_street>
</property>
<property>
  <property_id>7153</property_id>
  <lat>-37.736637</lat>
  <lng>144.823796</lng>
  <addr_street>1 McGrath Close</addr_street>
</property>
<property>
  <property_id>6786</property_id>
  <lat>-37.79190300000001</lat>
  <lng>144.830054</lng>
  <addr_street>5 Leith Avenue</addr_street>
</property>
<property>
  <property_id>43864</property_id>
  <lat>-37.70469284</lat>
  <lng>145.085083</lng>
  <addr_street>6 Dunn Street</addr_street>
</property>
<property>
  <property_id>53045</property_id>
  <lat>-37.822012</lat>
  <lng>144.990992</lng>
  <addr_street>32 Richmond Terrace</addr_street>
</property>
<property>
  <property_id>84199</property_id>
  <lat>-37.850467</lat>
  <lng>144.997988</lng>
  <addr_street>59 York Street</addr_street>
</property>
<property>
  <property_id>66139</property_id>
  <lat>-37.764993</lat>
  <lng>145.31543100000005</lng>
  <addr_street>272 Manchester Road</addr_street>
</property>
<property>
  <property_id>51582</property_id>
  <lat>-37.79199600000001</lat>
  <lng>145.137258</lng>
  <addr_street>60 Church Road</addr_street>
</property>
<property>
  <property_id>50443</property_id>
  <lat>-37.762828000000006</lat>
  <lng>145.09949</lng>
  <addr_street>92 Swanston Street</addr_street>
</property>
<property>
  <property_id>37145</property_id>
  <lat>-37.636785</lat>
  <lng>145.039518</lng>
  <addr_street>25 Saunders Crescent</addr_street>
</property>
<property>
  <property_id>19088</property_id>
  <lat>-37.686279</lat>
  <lng>144.91098200000005</lng>
  <addr_street>60 Bliburg Street</addr_street>
</property>
<property>
  <property_id>14505</property_id>
  <lat>-37.753754</lat>
  <lng>144.885568</lng>
  <addr_street>461 Buckley Street</addr_street>
</property>
<property>
  <property_id>62921</property_id>
  <lat>-37.83495300000001</lat>
  <lng>145.236403</lng>
  <addr_street>4 Markhill Place</addr_street>
</property>
<property>
  <property_id>61538</property_id>
  <lat>-37.794108</lat>
  <lng>145.24578200000005</lng>
  <addr_street>20 Major Street</addr_street>
</property>
<property>
  <property_id>40855</property_id>
  <lat>-37.702986</lat>
  <lng>145.06214</lng>
  <addr_street>554 Morwell Avenue</addr_street>
</property>
<property>
  <property_id>56996</property_id>
  <lat>-37.820372</lat>
  <lng>145.083896</lng>
  <addr_street>10 Winson Green Road</addr_street>
</property>
<property>
  <property_id>3958</property_id>
  <lat>-37.812437</lat>
  <lng>144.895243</lng>
  <addr_street>9/37 Stephen Street</addr_street>
</property>
<property>
  <property_id>56567</property_id>
  <lat>-37.852517</lat>
  <lng>145.112804</lng>
  <addr_street>30 Cumming Street</addr_street>
</property>
<property>
  <property_id>13937</property_id>
  <lat>-37.753561</lat>
  <lng>144.929099</lng>
  <addr_street>17 Vanberg Road</addr_street>
</property>
<property>
  <property_id>15900</property_id>
  <lat>-37.707767</lat>
  <lng>144.880129</lng>
  <addr_street>1/42 Sharps Road</addr_street>
</property>
<property>
  <property_id>40144</property_id>
  <lat>-37.71264648</lat>
  <lng>145.05227659999997</lng>
  <addr_street>24 Sanctuary Drive</addr_street>
</property>
<property>
  <property_id>62078</property_id>
  <lat>-37.779212</lat>
  <lng>145.254172</lng>
  <addr_street>5/22 Warranwood Road</addr_street>
</property>
<property>
  <property_id>54458</property_id>
  <lat>-37.825722</lat>
  <lng>145.038976</lng>
  <addr_street>37 Swinburne Avenue</addr_street>
</property>
<property>
  <property_id>23144</property_id>
  <lat>-37.74894000000001</lat>
  <lng>144.951483</lng>
  <addr_street>74a Saunders Street</addr_street>
</property>
<property>
  <property_id>25831</property_id>
  <lat>-37.573381</lat>
  <lng>144.928945</lng>
  <addr_street>2 Northstead Way</addr_street>
</property>
<property>
  <property_id>41489</property_id>
  <lat>-37.748985</lat>
  <lng>145.071356</lng>
  <addr_street>110 Rosanna Road</addr_street>
</property>
<property>
  <property_id>67118</property_id>
  <lat>-37.742427</lat>
  <lng>145.345849</lng>
  <addr_street>17 Rimfire Court</addr_street>
</property>
<property>
  <property_id>26771</property_id>
  <lat>-37.60462952</lat>
  <lng>144.9131165</lng>
  <addr_street>4 Eastwood Place</addr_street>
</property>
<property>
  <property_id>48738</property_id>
  <lat>-37.807405</lat>
  <lng>145.037616</lng>
  <addr_street>79 Cotham Road</addr_street>
</property>
<property>
  <property_id>9467</property_id>
  <lat>-37.863201</lat>
  <lng>144.722542</lng>
  <addr_street>3 Savanna Parade</addr_street>
</property>
<property>
  <property_id>31186</property_id>
  <lat>-37.762022</lat>
  <lng>145.02133600000005</lng>
  <addr_street>355 Station Street</addr_street>
</property>
<property>
  <property_id>58919</property_id>
  <lat>-37.812283</lat>
  <lng>145.17838999999995</lng>
  <addr_street>351 Springfield Road</addr_street>
</property>
<property>
  <property_id>87573</property_id>
  <lat>-37.936849</lat>
  <lng>145.014709</lng>
  <addr_street>28 Raynes Park Road</addr_street>
</property>
<property>
  <property_id>76208</property_id>
  <lat>-37.908176</lat>
  <lng>145.079391</lng>
  <addr_street>42 Simmonds Street</addr_street>
</property>
<property>
  <property_id>20626</property_id>
  <lat>-37.762487</lat>
  <lng>144.945565</lng>
  <addr_street>167 Hope Street</addr_street>
</property>
<property>
  <property_id>17199</property_id>
  <lat>-37.705754</lat>
  <lng>144.942615</lng>
  <addr_street>4 The Loop</addr_street>
</property>
<property>
  <property_id>55519</property_id>
  <lat>-37.838828</lat>
  <lng>145.070695</lng>
  <addr_street>31 Orrong Crescent</addr_street>
</property>
<property>
  <property_id>56549</property_id>
  <lat>-37.85191500000001</lat>
  <lng>145.123059</lng>
  <addr_street>3 Renown Street</addr_street>
</property>
<property>
  <property_id>64304</property_id>
  <lat>-37.785484</lat>
  <lng>145.268099</lng>
  <addr_street>34 Binbrook Drive</addr_street>
</property>
<property>
  <property_id>60316</property_id>
  <lat>-37.808552</lat>
  <lng>145.194559</lng>
  <addr_street>8A Quarry Road</addr_street>
</property>
<property>
  <property_id>92386</property_id>
  <lat>-37.981774</lat>
  <lng>145.058084</lng>
  <addr_street>63 Plummer Road</addr_street>
</property>
<property>
  <property_id>37796</property_id>
  <lat>-37.65244600000001</lat>
  <lng>145.035411</lng>
  <addr_street>8 Sunrise Court</addr_street>
</property>
<property>
  <property_id>22525</property_id>
  <lat>-37.752427</lat>
  <lng>144.962403</lng>
  <addr_street>3 Cameron Street</addr_street>
</property>
<property>
  <property_id>73625</property_id>
  <lat>-37.857134</lat>
  <lng>145.255371</lng>
  <addr_street>390 Boronia Road</addr_street>
</property>
<property>
  <property_id>60830</property_id>
  <lat>-37.84453</lat>
  <lng>145.187405</lng>
  <addr_street>55 Timbertop Drive</addr_street>
</property>
<property>
  <property_id>24054</property_id>
  <lat>-37.701565</lat>
  <lng>144.962144</lng>
  <addr_street>163 Jukes Road</addr_street>
</property>
<property>
  <property_id>13315</property_id>
  <lat>-37.723425</lat>
  <lng>144.769031</lng>
  <addr_street>6 Dunai Walk</addr_street>
</property>
<property>
  <property_id>17063</property_id>
  <lat>-37.696461</lat>
  <lng>144.91732199999996</lng>
  <addr_street>32 Mitchell Street</addr_street>
</property>
<property>
  <property_id>10492</property_id>
  <lat>-37.793228000000006</lat>
  <lng>144.920605</lng>
  <addr_street>39 Cornish Ln</addr_street>
</property>
<property>
  <property_id>62818</property_id>
  <lat>-37.82174000000001</lat>
  <lng>145.24714</lng>
  <addr_street>3 Bedford Court</addr_street>
</property>
<property>
  <property_id>73847</property_id>
  <lat>-37.870459</lat>
  <lng>145.289197</lng>
  <addr_street>59A Underwood Road</addr_street>
</property>
<property>
  <property_id>31815</property_id>
  <lat>-37.747939</lat>
  <lng>144.992226</lng>
  <addr_street>12A Erin Street</addr_street>
</property>
<property>
  <property_id>72044</property_id>
  <lat>-37.845724</lat>
  <lng>145.26361599999996</lng>
  <addr_street>13 Grandview Grove</addr_street>
</property>
<property>
  <property_id>52610</property_id>
  <lat>-37.81402</lat>
  <lng>144.991353</lng>
  <addr_street>2 Egan Street</addr_street>
</property>
<property>
  <property_id>56077</property_id>
  <lat>-37.85684967</lat>
  <lng>145.13095090000004</lng>
  <addr_street>1 Winton Street</addr_street>
</property>
<property>
  <property_id>28598</property_id>
  <lat>-37.79575348</lat>
  <lng>144.98774719999997</lng>
  <addr_street>315 Wellington Street</addr_street>
</property>
<property>
  <property_id>14077</property_id>
  <lat>-37.743656</lat>
  <lng>144.914682</lng>
  <addr_street>21 Schofield Street</addr_street>
</property>
<property>
  <property_id>17894</property_id>
  <lat>-37.703597</lat>
  <lng>144.928542</lng>
  <addr_street>96 Melbourne Avenue</addr_street>
</property>
<property>
  <property_id>82674</property_id>
  <lat>-37.905036</lat>
  <lng>145.271233</lng>
  <addr_street>23 Victoria Knox Avenue</addr_street>
</property>
<property>
  <property_id>19242</property_id>
  <lat>-37.684526</lat>
  <lng>144.92768999999996</lng>
  <addr_street>87 Cuthbert Street</addr_street>
</property>
<property>
  <property_id>6689</property_id>
  <lat>-37.778992</lat>
  <lng>144.816852</lng>
  <addr_street>4 Dubbo Street</addr_street>
</property>
<property>
  <property_id>68633</property_id>
  <lat>-37.85181046</lat>
  <lng>145.0226135</lng>
  <addr_street>7 Erskine Street</addr_street>
</property>
<property>
  <property_id>34910</property_id>
  <lat>-37.720247</lat>
  <lng>144.997029</lng>
  <addr_street>40 Gloucester Street</addr_street>
</property>
<property>
  <property_id>19261</property_id>
  <lat>-37.672313</lat>
  <lng>144.940861</lng>
  <addr_street>9 King Street</addr_street>
</property>
<property>
  <property_id>70997</property_id>
  <lat>-37.861221</lat>
  <lng>145.236788</lng>
  <addr_street>10 Cobain Square</addr_street>
</property>
<property>
  <property_id>75575</property_id>
  <lat>-37.896458</lat>
  <lng>145.096729</lng>
  <addr_street>1/3 Tamar Grove</addr_street>
</property>
<property>
  <property_id>47080</property_id>
  <lat>-37.715712</lat>
  <lng>145.178411</lng>
  <addr_street>35 Gum Tree Road</addr_street>
</property>
<property>
  <property_id>36083</property_id>
  <lat>-37.670404</lat>
  <lng>145.023915</lng>
  <addr_street>1/14 Maxwell Street</addr_street>
</property>
<property>
  <property_id>19435</property_id>
  <lat>-37.657834</lat>
  <lng>144.930609</lng>
  <addr_street>4 Kiata Court</addr_street>
</property>
<property>
  <property_id>85804</property_id>
  <lat>-37.886848</lat>
  <lng>145.00106</lng>
  <addr_street>7 McMillan Street</addr_street>
</property>
<property>
  <property_id>29108</property_id>
  <lat>-37.799642</lat>
  <lng>144.997883</lng>
  <addr_street>70 Little Turner Street</addr_street>
</property>
<property>
  <property_id>94098</property_id>
  <lat>-38.079244</lat>
  <lng>145.12540900000005</lng>
  <addr_street>13 Kalimna Street</addr_street>
</property>
<property>
  <property_id>88150</property_id>
  <lat>-37.94173</lat>
  <lng>145.043703</lng>
  <addr_street>21 Hillston Road</addr_street>
</property>
<property>
  <property_id>83390</property_id>
  <lat>-37.855352</lat>
  <lng>145.005696</lng>
  <addr_street>101 Chomley Street</addr_street>
</property>
<property>
  <property_id>16327</property_id>
  <lat>-37.696464</lat>
  <lng>144.94144599999996</lng>
  <addr_street>109 John Street</addr_street>
</property>
<property>
  <property_id>2878</property_id>
  <lat>-37.810293</lat>
  <lng>144.888442</lng>
  <addr_street>15 O'Farrell Street</addr_street>
</property>
<property>
  <property_id>52740</property_id>
  <lat>-37.82134247</lat>
  <lng>144.9938202</lng>
  <addr_street>220 Lennox Street</addr_street>
</property>
<property>
  <property_id>83196</property_id>
  <lat>-37.886194</lat>
  <lng>145.241166</lng>
  <addr_street>42 Rodney Drive</addr_street>
</property>
<property>
  <property_id>82409</property_id>
  <lat>-37.991254</lat>
  <lng>145.23533600000005</lng>
  <addr_street>8 &amp; 8A Blossom Drive</addr_street>
</property>
<property>
  <property_id>86409</property_id>
  <lat>-37.911156</lat>
  <lng>144.995191</lng>
  <addr_street>24 St Andrews Street</addr_street>
</property>
<property>
  <property_id>51026</property_id>
  <lat>-37.794212</lat>
  <lng>145.11428</lng>
  <addr_street>20 Stanton Street</addr_street>
</property>
<property>
  <property_id>59908</property_id>
  <lat>-37.82868300000001</lat>
  <lng>145.192212</lng>
  <addr_street>37 Rosstrevor Crescent</addr_street>
</property>
<property>
  <property_id>68672</property_id>
  <lat>-37.8563951</lat>
  <lng>145.02279030000003</lng>
  <addr_street>8 William Street</addr_street>
</property>
<property>
  <property_id>90950</property_id>
  <lat>-37.968203</lat>
  <lng>145.06132</lng>
  <addr_street>7 Devon Street</addr_street>
</property>
<property>
  <property_id>68682</property_id>
  <lat>-37.86035</lat>
  <lng>145.018116</lng>
  <addr_street>9 Armadale Street</addr_street>
</property>
<property>
  <property_id>81639</property_id>
  <lat>-37.98051834</lat>
  <lng>145.2389374</lng>
  <addr_street>10 Banksia St</addr_street>
</property>
<property>
  <property_id>21867</property_id>
  <lat>-37.738507</lat>
  <lng>144.96156399999995</lng>
  <addr_street>12 Geake Street</addr_street>
</property>
<property>
  <property_id>28894</property_id>
  <lat>-37.808969</lat>
  <lng>144.994022</lng>
  <addr_street>2/8b Park Street</addr_street>
</property>
<property>
  <property_id>91744</property_id>
  <lat>-37.973879</lat>
  <lng>145.046905</lng>
  <addr_street>6 Cherbourg Avenue</addr_street>
</property>
<property>
  <property_id>50050</property_id>
  <lat>-37.774364</lat>
  <lng>145.08676200000005</lng>
  <addr_street>22 Barak Street</addr_street>
</property>
<property>
  <property_id>73962</property_id>
  <lat>-37.862356</lat>
  <lng>145.276446</lng>
  <addr_street>7/2 Woodvale Road</addr_street>
</property>
<property>
  <property_id>62308</property_id>
  <lat>-37.809017</lat>
  <lng>145.224676</lng>
  <addr_street>8 Harrison Street</addr_street>
</property>
<property>
  <property_id>62104</property_id>
  <lat>-37.788207</lat>
  <lng>145.254718</lng>
  <addr_street>55 Kalinda Road</addr_street>
</property>
<property>
  <property_id>21693</property_id>
  <lat>-37.736071</lat>
  <lng>144.95433799999995</lng>
  <addr_street>1 Kerferd Street</addr_street>
</property>
<property>
  <property_id>40398</property_id>
  <lat>-37.69513900000001</lat>
  <lng>145.066745</lng>
  <addr_street>32 Luton Way</addr_street>
</property>
<property>
  <property_id>58174</property_id>
  <lat>-37.832055</lat>
  <lng>145.164422</lng>
  <addr_street>5 Beatrice Court</addr_street>
</property>
<property>
  <property_id>38369</property_id>
  <lat>-37.782608</lat>
  <lng>145.022499</lng>
  <addr_street>552 Heidelberg Road</addr_street>
</property>
<property>
  <property_id>80948</property_id>
  <lat>-37.978763</lat>
  <lng>145.200032</lng>
  <addr_street>2 Campbell Street</addr_street>
</property>
<property>
  <property_id>42168</property_id>
  <lat>-37.76915</lat>
  <lng>145.059746</lng>
  <addr_street>38 Maltravers Road</addr_street>
</property>
<property>
  <property_id>91127</property_id>
  <lat>-37.977722</lat>
  <lng>145.040774</lng>
  <addr_street>1/1 Ozone Avenue</addr_street>
</property>
<property>
  <property_id>67997</property_id>
  <lat>-37.8366514</lat>
  <lng>145.024182</lng>
  <addr_street>248 Kooyong Road</addr_street>
</property>
<property>
  <property_id>38201</property_id>
  <lat>-37.78350449</lat>
  <lng>145.0315857</lng>
  <addr_street>29 Yarralea Street</addr_street>
</property>
<property>
  <property_id>50050</property_id>
  <lat>-37.774364</lat>
  <lng>145.08676200000005</lng>
  <addr_street>22 Barak Street</addr_street>
</property>
<property>
  <property_id>86902</property_id>
  <lat>-37.92109</lat>
  <lng>144.997863</lng>
  <addr_street>57 Lynch Crescent</addr_street>
</property>
<property>
  <property_id>66328</property_id>
  <lat>-37.780227</lat>
  <lng>145.311475</lng>
  <addr_street>4 Andrew Street</addr_street>
</property>
<property>
  <property_id>89981</property_id>
  <lat>-37.97047043</lat>
  <lng>145.0597076</lng>
  <addr_street>13 Tuck Street</addr_street>
</property>
<property>
  <property_id>21948</property_id>
  <lat>-37.744187</lat>
  <lng>144.955749</lng>
  <addr_street>131 Munro Street</addr_street>
</property>
<property>
  <property_id>53722</property_id>
  <lat>-37.828988</lat>
  <lng>144.99918799999998</lng>
  <addr_street>73 Brighton Street</addr_street>
</property>
<property>
  <property_id>13706</property_id>
  <lat>-37.747402</lat>
  <lng>144.909249</lng>
  <addr_street>109 Lincoln Road</addr_street>
</property>
<property>
  <property_id>28922</property_id>
  <lat>-37.808365</lat>
  <lng>144.994246</lng>
  <addr_street>22 Park Street</addr_street>
</property>
<property>
  <property_id>6002</property_id>
  <lat>-37.784473</lat>
  <lng>144.83951299999995</lng>
  <addr_street>10 Brislington Street</addr_street>
</property>
<property>
  <property_id>14084</property_id>
  <lat>-37.75107574</lat>
  <lng>144.8936768</lng>
  <addr_street>22 Bradshaw Street</addr_street>
</property>
<property>
  <property_id>94251</property_id>
  <lat>-38.074745</lat>
  <lng>145.13081</lng>
  <addr_street>9 Graham Road</addr_street>
</property>
<property>
  <property_id>42377</property_id>
  <lat>-37.76445770000001</lat>
  <lng>145.0540466</lng>
  <addr_street>53 Silverdale Road</addr_street>
</property>
<property>
  <property_id>72588</property_id>
  <lat>-37.843222</lat>
  <lng>145.260653</lng>
  <addr_street>8 Elm Street</addr_street>
</property>
<property>
  <property_id>73186</property_id>
  <lat>-37.845425</lat>
  <lng>145.297504</lng>
  <addr_street>2/13 Phipps Avenue</addr_street>
</property>
<property>
  <property_id>85798</property_id>
  <lat>-37.88378143</lat>
  <lng>145.01123049999995</lng>
  <addr_street>7 Edward Street</addr_street>
</property>
<property>
  <property_id>47976</property_id>
  <lat>-37.799606</lat>
  <lng>145.045154</lng>
  <addr_street>17 Churchill Street</addr_street>
</property>
<property>
  <property_id>31371</property_id>
  <lat>-37.755423</lat>
  <lng>144.984283</lng>
  <addr_street>6/21 Comas Grove</addr_street>
</property>
<property>
  <property_id>14864</property_id>
  <lat>-37.754351</lat>
  <lng>144.90706</lng>
  <addr_street>9 Elder Parade</addr_street>
</property>
<property>
  <property_id>18668</property_id>
  <lat>-37.68855300000001</lat>
  <lng>144.914172</lng>
  <addr_street>30 Landy Road</addr_street>
</property>
<property>
  <property_id>41916</property_id>
  <lat>-37.76740646</lat>
  <lng>145.0552368</lng>
  <addr_street>24 Hopetoun Grove</addr_street>
</property>
<property>
  <property_id>30158</property_id>
  <lat>-37.766753</lat>
  <lng>145.000687</lng>
  <addr_street>5 Hunter Street</addr_street>
</property>
<property>
  <property_id>49131</property_id>
  <lat>-37.812663</lat>
  <lng>145.095606</lng>
  <addr_street>18 Narrak Road</addr_street>
</property>
<property>
  <property_id>50811</property_id>
  <lat>-37.780337</lat>
  <lng>145.10820800000005</lng>
  <addr_street>14 Buckingham Crescent</addr_street>
</property>
<property>
  <property_id>67809</property_id>
  <lat>-37.837043</lat>
  <lng>145.018765</lng>
  <addr_street>1 Ultimo Court</addr_street>
</property>
<property>
  <property_id>21193</property_id>
  <lat>-37.774663</lat>
  <lng>144.951729</lng>
  <addr_street>4 Heller Street</addr_street>
</property>
<property>
  <property_id>94359</property_id>
  <lat>-37.95971</lat>
  <lng>145.076154</lng>
  <addr_street>32 San Lorenzo Court</addr_street>
</property>
<property>
  <property_id>90268</property_id>
  <lat>-37.96747589</lat>
  <lng>145.06823730000005</lng>
  <addr_street>20 Tenham Grove</addr_street>
</property>
<property>
  <property_id>53549</property_id>
  <lat>-37.82048416</lat>
  <lng>144.99011230000005</lng>
  <addr_street>6 Rowena Parade</addr_street>
</property>
<property>
  <property_id>77709</property_id>
  <lat>-37.928006</lat>
  <lng>145.185856</lng>
  <addr_street>20 St James Park Drive</addr_street>
</property>
<property>
  <property_id>42777</property_id>
  <lat>-37.714253</lat>
  <lng>145.063319</lng>
  <addr_street>11 Gresswell Road</addr_street>
</property>
<property>
  <property_id>96192</property_id>
  <lat>-37.92314</lat>
  <lng>145.0354</lng>
  <addr_street>73 North Avenue</addr_street>
</property>
<property>
  <property_id>65091</property_id>
  <lat>-37.807286</lat>
  <lng>145.30544799999996</lng>
  <addr_street>11 Landstrom Quadrant</addr_street>
</property>
<property>
  <property_id>3859</property_id>
  <lat>-37.821627</lat>
  <lng>144.89165400000005</lng>
  <addr_street>75 Francis Street</addr_street>
</property>
<property>
  <property_id>82270</property_id>
  <lat>-37.985115</lat>
  <lng>145.247276</lng>
  <addr_street>50 Rebecca Street</addr_street>
</property>
<property>
  <property_id>69696</property_id>
  <lat>-37.870859</lat>
  <lng>145.074207</lng>
  <addr_street>2 Taylor Street</addr_street>
</property>
<property>
  <property_id>6473</property_id>
  <lat>-37.780355</lat>
  <lng>144.84438799999995</lng>
  <addr_street>23 Ernest St ,</addr_street>
</property>
<property>
  <property_id>46260</property_id>
  <lat>-37.714239</lat>
  <lng>145.116224</lng>
  <addr_street>8 Station Road</addr_street>
</property>
<property>
  <property_id>24345</property_id>
  <lat>-37.713593</lat>
  <lng>144.972362</lng>
  <addr_street>34 Tyrrell Crescent</addr_street>
</property>
<property>
  <property_id>79215</property_id>
  <lat>-37.93997955</lat>
  <lng>145.1487885</lng>
  <addr_street>55 Whitworth Avenue</addr_street>
</property>
<property>
  <property_id>43079</property_id>
  <lat>-37.727567</lat>
  <lng>145.101886</lng>
  <addr_street>3 Woona Court</addr_street>
</property>
<property>
  <property_id>25184</property_id>
  <lat>-37.6117</lat>
  <lng>144.929518</lng>
  <addr_street>12 Amesbury Avenue</addr_street>
</property>
<property>
  <property_id>25944</property_id>
  <lat>-37.5873091</lat>
  <lng>144.9047407</lng>
  <addr_street>21 Dalwhinnie Crescent</addr_street>
</property>
<property>
  <property_id>80316</property_id>
  <lat>-37.990843</lat>
  <lng>145.160688</lng>
  <addr_street>5 Carribean Drive</addr_street>
</property>
<property>
  <property_id>26222</property_id>
  <lat>-37.57981491</lat>
  <lng>144.9324493</lng>
  <addr_street>27 Swinburne Close</addr_street>
</property>
<property>
  <property_id>77615</property_id>
  <lat>-37.932138</lat>
  <lng>145.20511299999995</lng>
  <addr_street>2 Aboyne Close</addr_street>
</property>
<property>
  <property_id>46076</property_id>
  <lat>-37.7183075</lat>
  <lng>145.11416630000005</lng>
  <addr_street>4/80 Para Road</addr_street>
</property>
<property>
  <property_id>44714</property_id>
  <lat>-37.717119</lat>
  <lng>145.106519</lng>
  <addr_street>245 Elder Street</addr_street>
</property>
<property>
  <property_id>15886</property_id>
  <lat>-37.708418</lat>
  <lng>144.887972</lng>
  <addr_street>1 Warwick Place</addr_street>
</property>
<property>
  <property_id>19343</property_id>
  <lat>-37.66381454</lat>
  <lng>144.93663030000005</lng>
  <addr_street>17 Warne Street</addr_street>
</property>
<property>
  <property_id>48077</property_id>
  <lat>-37.798459</lat>
  <lng>145.04549699999995</lng>
  <addr_street>2/9 Asquith Street</addr_street>
</property>
<property>
  <property_id>21666</property_id>
  <lat>-37.77359000000001</lat>
  <lng>144.953779</lng>
  <addr_street>97 Union Street</addr_street>
</property>
<property>
  <property_id>75891</property_id>
  <lat>-37.895047</lat>
  <lng>145.083902</lng>
  <addr_street>2/22 Clapham Road</addr_street>
</property>
<property>
  <property_id>58808</property_id>
  <lat>-37.808608</lat>
  <lng>145.180521</lng>
  <addr_street>28 Olwen Street</addr_street>
</property>
<property>
  <property_id>69522</property_id>
  <lat>-37.867078</lat>
  <lng>145.066924</lng>
  <addr_street>13 Dunlop Street</addr_street>
</property>
<property>
  <property_id>65141</property_id>
  <lat>-37.808578</lat>
  <lng>145.31938799999998</lng>
  <addr_street>14A Hillview Drive</addr_street>
</property>
<property>
  <property_id>45135</property_id>
  <lat>-37.707832</lat>
  <lng>145.088287</lng>
  <addr_street>468 Greensborough Road</addr_street>
</property>
<property>
  <property_id>23954</property_id>
  <lat>-37.712732</lat>
  <lng>144.974018</lng>
  <addr_street>12 Vervale Avenue</addr_street>
</property>
<property>
  <property_id>24620</property_id>
  <lat>-37.693622</lat>
  <lng>144.962103</lng>
  <addr_street>9 Hedley Street</addr_street>
</property>
<property>
  <property_id>90659</property_id>
  <lat>-37.96445084</lat>
  <lng>145.05444340000003</lng>
  <addr_street>4 Hall Sreet</addr_street>
</property>
<property>
  <property_id>65940</property_id>
  <lat>-37.792087</lat>
  <lng>145.307749</lng>
  <addr_street>2 Harley Crescent</addr_street>
</property>
<property>
  <property_id>46615</property_id>
  <lat>-37.70932388</lat>
  <lng>145.1520538</lng>
  <addr_street>14 Livingstone Road</addr_street>
</property>
<property>
  <property_id>6468</property_id>
  <lat>-37.77848053</lat>
  <lng>144.8122406</lng>
  <addr_street>22 Norwood Street</addr_street>
</property>
<property>
  <property_id>73386</property_id>
  <lat>-37.859745</lat>
  <lng>145.297788</lng>
  <addr_street>27 Moncoe Street</addr_street>
</property>
<property>
  <property_id>44439</property_id>
  <lat>-37.685231</lat>
  <lng>145.104324</lng>
  <addr_street>18 Hamish Court</addr_street>
</property>
<property>
  <property_id>69715</property_id>
  <lat>-37.86844254</lat>
  <lng>145.10223390000004</lng>
  <addr_street>2/9 Jordan Street</addr_street>
</property>
<property>
  <property_id>84199</property_id>
  <lat>-37.850467</lat>
  <lng>144.997988</lng>
  <addr_street>59 York Street</addr_street>
</property>
<property>
  <property_id>75562</property_id>
  <lat>-37.898927</lat>
  <lng>145.101499</lng>
  <addr_street>1/1520 Dandenong Road</addr_street>
</property>
<property>
  <property_id>38948</property_id>
  <lat>-37.754857</lat>
  <lng>145.052784</lng>
  <addr_street>52A Myrtle Street</addr_street>
</property>
<property>
  <property_id>60192</property_id>
  <lat>-37.821488</lat>
  <lng>145.189311</lng>
  <addr_street>66 Madison Boulevard</addr_street>
</property>
<property>
  <property_id>16123</property_id>
  <lat>-37.698963</lat>
  <lng>144.901947</lng>
  <addr_street>64 Marigold Crescent</addr_street>
</property>
<property>
  <property_id>36553</property_id>
  <lat>-37.661004</lat>
  <lng>145.02881599999995</lng>
  <addr_street>7 Midway Crescent</addr_street>
</property>
<property>
  <property_id>93091</property_id>
  <lat>-38.015273</lat>
  <lng>145.097621</lng>
  <addr_street>27 Eulinga Avenue</addr_street>
</property>
<property>
  <property_id>96186</property_id>
  <lat>-37.91045379999999</lat>
  <lng>145.0318756</lng>
  <addr_street>72 McKinnon Road</addr_street>
</property>
<property>
  <property_id>28852</property_id>
  <lat>-37.802974</lat>
  <lng>144.995465</lng>
  <addr_street>165 Charles Street</addr_street>
</property>
<property>
  <property_id>75979</property_id>
  <lat>-37.90252686</lat>
  <lng>145.10232539999996</lng>
  <addr_street>24 George Street</addr_street>
</property>
<property>
  <property_id>25678</property_id>
  <lat>-37.59092</lat>
  <lng>144.923249</lng>
  <addr_street>18 Cowes Street</addr_street>
</property>
<property>
  <property_id>82286</property_id>
  <lat>-37.987909</lat>
  <lng>145.24724799999996</lng>
  <addr_street>54 Kidds Road</addr_street>
</property>
<property>
  <property_id>95936</property_id>
  <lat>-37.913736</lat>
  <lng>145.040106</lng>
  <addr_street>53 Godfrey Street</addr_street>
</property>
<property>
  <property_id>83369</property_id>
  <lat>-37.849855</lat>
  <lng>145.00929</lng>
  <addr_street>10 A'Beckett Street</addr_street>
</property>
<property>
  <property_id>54434</property_id>
  <lat>-37.817076</lat>
  <lng>145.04146</lng>
  <addr_street>35 Haines Street</addr_street>
</property>
<property>
  <property_id>42352</property_id>
  <lat>-37.743202200000006</lat>
  <lng>145.0585756</lng>
  <addr_street>50 Waiora Road</addr_street>
</property>
<property>
  <property_id>78277</property_id>
  <lat>-37.91218567</lat>
  <lng>145.160202</lng>
  <addr_street>620 Springvale Road</addr_street>
</property>
<property>
  <property_id>18830</property_id>
  <lat>-37.68065900000001</lat>
  <lng>144.90519</lng>
  <addr_street>4 Ripplebrook Drive</addr_street>
</property>
<property>
  <property_id>55707</property_id>
  <lat>-37.839399</lat>
  <lng>145.065573</lng>
  <addr_street>458 Camberwell Road</addr_street>
</property>
<property>
  <property_id>43136</property_id>
  <lat>-37.72048</lat>
  <lng>145.106989</lng>
  <addr_street>4 Lowan Avenue</addr_street>
</property>
<property>
  <property_id>93721</property_id>
  <lat>-37.993094</lat>
  <lng>145.091808</lng>
  <addr_street>88 Keith Street</addr_street>
</property>
<property>
  <property_id>49104</property_id>
  <lat>-37.8127155</lat>
  <lng>145.0969927</lng>
  <addr_street>17 Westminster Street</addr_street>
</property>
<property>
  <property_id>24965</property_id>
  <lat>-37.587164</lat>
  <lng>144.926881</lng>
  <addr_street>10 Birch Court</addr_street>
</property>
<property>
  <property_id>58084</property_id>
  <lat>-37.814309</lat>
  <lng>145.140493</lng>
  <addr_street>4 Elmhurst Road</addr_street>
</property>
<property>
  <property_id>22571</property_id>
  <lat>-37.750839</lat>
  <lng>144.955025</lng>
  <addr_street>30 Wattle  Grove</addr_street>
</property>
<property>
  <property_id>78408</property_id>
  <lat>-37.93237686</lat>
  <lng>145.2025147</lng>
  <addr_street>83 Gladeswood Drive</addr_street>
</property>
<property>
  <property_id>60700</property_id>
  <lat>-37.83074570000001</lat>
  <lng>145.207077</lng>
  <addr_street>34 Denis Street</addr_street>
</property>
<property>
  <property_id>34868</property_id>
  <lat>-37.699652</lat>
  <lng>145.021445</lng>
  <addr_street>4 Elizabeth Court</addr_street>
</property>
<property>
  <property_id>89668</property_id>
  <lat>-37.94557571</lat>
  <lng>145.0039368</lng>
  <addr_street>7A Carew Street</addr_street>
</property>
<property>
  <property_id>55944</property_id>
  <lat>-37.83860900000001</lat>
  <lng>145.08703799999995</lng>
  <addr_street>8 Cornell Street</addr_street>
</property>
<property>
  <property_id>66674</property_id>
  <lat>-37.77266</lat>
  <lng>145.303415</lng>
  <addr_street>71 Bellara Drive</addr_street>
</property>
<property>
  <property_id>14695</property_id>
  <lat>-37.74771</lat>
  <lng>144.895577</lng>
  <addr_street>64 Price Street</addr_street>
</property>
<property>
  <property_id>15823</property_id>
  <lat>-37.742614</lat>
  <lng>144.885758</lng>
  <addr_street>64 Muriel Street</addr_street>
</property>
<property>
  <property_id>35396</property_id>
  <lat>-37.70556259</lat>
  <lng>145.0236206</lng>
  <addr_street>65 Hickford Street</addr_street>
</property>
<property>
  <property_id>48103</property_id>
  <lat>-37.81381989</lat>
  <lng>145.04446409999997</lng>
  <addr_street>21 Malin Street</addr_street>
</property>
<property>
  <property_id>29983</property_id>
  <lat>-37.776467</lat>
  <lng>144.991438</lng>
  <addr_street>35 Charles Street</addr_street>
</property>
<property>
  <property_id>47021</property_id>
  <lat>-37.70344543</lat>
  <lng>145.1631775</lng>
  <addr_street>3/1 Andrews Street</addr_street>
</property>
<property>
  <property_id>63173</property_id>
  <lat>-37.795576</lat>
  <lng>145.268135</lng>
  <addr_street>1 Banool Court</addr_street>
</property>
<property>
  <property_id>9496</property_id>
  <lat>-37.855022</lat>
  <lng>144.726785</lng>
  <addr_street>35 Alison Street</addr_street>
</property>
<property>
  <property_id>7448</property_id>
  <lat>-37.74234600000001</lat>
  <lng>144.778751</lng>
  <addr_street>38 Camelot Drive</addr_street>
</property>
<property>
  <property_id>73494</property_id>
  <lat>-37.864777</lat>
  <lng>145.265165</lng>
  <addr_street>3 Western Road</addr_street>
</property>
<property>
  <property_id>40144</property_id>
  <lat>-37.71264648</lat>
  <lng>145.05227659999997</lng>
  <addr_street>24 Sanctuary Drive</addr_street>
</property>
<property>
  <property_id>22446</property_id>
  <lat>-37.749048</lat>
  <lng>144.953738</lng>
  <addr_street>27 Phillips Street</addr_street>
</property>
<property>
  <property_id>5632</property_id>
  <lat>-37.7762</lat>
  <lng>144.85429</lng>
  <addr_street>21 Kannan Boulevard</addr_street>
</property>
<property>
  <property_id>34966</property_id>
  <lat>-37.721142</lat>
  <lng>144.988459</lng>
  <addr_street>43 Kingsley Road</addr_street>
</property>
<property>
  <property_id>90896</property_id>
  <lat>-37.970605</lat>
  <lng>145.036559</lng>
  <addr_street>6 Weatherall Road</addr_street>
</property>
<property>
  <property_id>57810</property_id>
  <lat>-37.823036</lat>
  <lng>145.138785</lng>
  <addr_street>20 Hillside Crescent</addr_street>
</property>
<property>
  <property_id>40708</property_id>
  <lat>-37.703047</lat>
  <lng>145.049288</lng>
  <addr_street>48 Snakegully Drive</addr_street>
</property>
<property>
  <property_id>84240</property_id>
  <lat>-37.852945</lat>
  <lng>145.005293</lng>
  <addr_street>62 Aberdeen Road</addr_street>
</property>
<property>
  <property_id>32409</property_id>
  <lat>-37.73452759</lat>
  <lng>145.0252075</lng>
  <addr_street>25 Laha Crescent</addr_street>
</property>
<property>
  <property_id>55277</property_id>
  <lat>-37.836375</lat>
  <lng>145.075455</lng>
  <addr_street>21 Cooloongatta Road</addr_street>
</property>
<property>
  <property_id>23068</property_id>
  <lat>-37.74328613</lat>
  <lng>144.94847109999995</lng>
  <addr_street>68 Bruce Street</addr_street>
</property>
<property>
  <property_id>32195</property_id>
  <lat>-37.745661</lat>
  <lng>145.017348</lng>
  <addr_street>2 Lahinch Street</addr_street>
</property>
<property>
  <property_id>18421</property_id>
  <lat>-37.67542267</lat>
  <lng>144.93609619999995</lng>
  <addr_street>20 KIEWA CRESCENT</addr_street>
</property>
<property>
  <property_id>3056</property_id>
  <lat>-37.815602</lat>
  <lng>144.893215</lng>
  <addr_street>2/6 Maggie Street</addr_street>
</property>
<property>
  <property_id>67479</property_id>
  <lat>-37.773732</lat>
  <lng>145.35587900000004</lng>
  <addr_street>44 Lakeview Drive</addr_street>
</property>
<property>
  <property_id>63665</property_id>
  <lat>-37.808216</lat>
  <lng>145.286397</lng>
  <addr_street>17 FREDERICK STREET</addr_street>
</property>
<property>
  <property_id>33463</property_id>
  <lat>-37.71034</lat>
  <lng>145.019307</lng>
  <addr_street>1/47 Crookston Road</addr_street>
</property>
<property>
  <property_id>47107</property_id>
  <lat>-37.724891</lat>
  <lng>145.157648</lng>
  <addr_street>37 View Hill Crescent</addr_street>
</property>
<property>
  <property_id>27599</property_id>
  <lat>-37.589579</lat>
  <lng>144.907571</lng>
  <addr_street>7 Langford Drive</addr_street>
</property>
<property>
  <property_id>56015</property_id>
  <lat>-37.840447</lat>
  <lng>145.07038300000005</lng>
  <addr_street>9 Orrong Crescent</addr_street>
</property>
<property>
  <property_id>81906</property_id>
  <lat>-37.992392</lat>
  <lng>145.245903</lng>
  <addr_street>2 Karo Court</addr_street>
</property>
<property>
  <property_id>37198</property_id>
  <lat>-37.646375</lat>
  <lng>145.054887</lng>
  <addr_street>29 Halter Crescent</addr_street>
</property>
<property>
  <property_id>36244</property_id>
  <lat>-37.66902161</lat>
  <lng>145.02171330000004</lng>
  <addr_street>2 Mackey Street</addr_street>
</property>
<property>
  <property_id>86121</property_id>
  <lat>-37.892515</lat>
  <lng>144.999397</lng>
  <addr_street>137 Head Street</addr_street>
</property>
<property>
  <property_id>39846</property_id>
  <lat>-37.713202</lat>
  <lng>145.027163</lng>
  <addr_street>176 Dunne Street</addr_street>
</property>
<property>
  <property_id>70097</property_id>
  <lat>-37.858217</lat>
  <lng>145.102898</lng>
  <addr_street>45 Ashwood Drive</addr_street>
</property>
<property>
  <property_id>17071</property_id>
  <lat>-37.709317</lat>
  <lng>144.91930200000004</lng>
  <addr_street>326 Waterloo Road</addr_street>
</property>
<property>
  <property_id>41423</property_id>
  <lat>-37.74928284</lat>
  <lng>145.06008909999997</lng>
  <addr_street>10 Shirley Gr</addr_street>
</property>
<property>
  <property_id>39901</property_id>
  <lat>-37.692549</lat>
  <lng>145.056575</lng>
  <addr_street>19 Samuel Court</addr_street>
</property>
<property>
  <property_id>33122</property_id>
  <lat>-37.751435</lat>
  <lng>145.01895</lng>
  <addr_street>7 Hay Street</addr_street>
</property>
<property>
  <property_id>69548</property_id>
  <lat>-37.857947</lat>
  <lng>145.103958</lng>
  <addr_street>14 Ashwood Drive</addr_street>
</property>
<property>
  <property_id>56473</property_id>
  <lat>-37.8439358</lat>
  <lng>145.1072166</lng>
  <addr_street>26 Uganda St</addr_street>
</property>
<property>
  <property_id>10206</property_id>
  <lat>-37.785929</lat>
  <lng>144.92918600000004</lng>
  <addr_street>2 Finsbury Street</addr_street>
</property>
<property>
  <property_id>16515</property_id>
  <lat>-37.707345</lat>
  <lng>144.90628999999996</lng>
  <addr_street>139 Loongana Avenue</addr_street>
</property>
<property>
  <property_id>74511</property_id>
  <lat>-37.899178000000006</lat>
  <lng>145.046578</lng>
  <addr_street>11 Kingsley Parade</addr_street>
</property>
<property>
  <property_id>43792</property_id>
  <lat>-37.713329</lat>
  <lng>145.087703</lng>
  <addr_street>44 Elder Street</addr_street>
</property>
<property>
  <property_id>77461</property_id>
  <lat>-37.932022</lat>
  <lng>145.172461</lng>
  <addr_street>121 Albany Drive</addr_street>
</property>
<property>
  <property_id>67014</property_id>
  <lat>-37.749436</lat>
  <lng>145.356582</lng>
  <addr_street>133 Anderson Street</addr_street>
</property>
<property>
  <property_id>38223</property_id>
  <lat>-37.773145</lat>
  <lng>145.023085</lng>
  <addr_street>30 Rayment Street</addr_street>
</property>
<property>
  <property_id>16385</property_id>
  <lat>-37.714533</lat>
  <lng>144.941158</lng>
  <addr_street>117 South Street</addr_street>
</property>
<property>
  <property_id>7830</property_id>
  <lat>-37.782255</lat>
  <lng>144.803211</lng>
  <addr_street>3/67 Suspension Street</addr_street>
</property>
<property>
  <property_id>88913</property_id>
  <lat>-37.95079000000001</lat>
  <lng>145.030542</lng>
  <addr_street>5 Haynes Street</addr_street>
</property>
<property>
  <property_id>44140</property_id>
  <lat>-37.717604</lat>
  <lng>145.099186</lng>
  <addr_street>11 Russell Street</addr_street>
</property>
<property>
  <property_id>47028</property_id>
  <lat>-37.711815</lat>
  <lng>145.156846</lng>
  <addr_street>3/38 Grove Street</addr_street>
</property>
<property>
  <property_id>42953</property_id>
  <lat>-37.727422</lat>
  <lng>145.098062</lng>
  <addr_street>2 Tara Court</addr_street>
</property>
<property>
  <property_id>49049</property_id>
  <lat>-37.81021118</lat>
  <lng>145.07804869999995</lng>
  <addr_street>15 Kalimna Street</addr_street>
</property>
<property>
  <property_id>25244</property_id>
  <lat>-37.605257</lat>
  <lng>144.920316</lng>
  <addr_street>12 St Cloud Green</addr_street>
</property>
<property>
  <property_id>93273</property_id>
  <lat>-38.015387</lat>
  <lng>145.09941</lng>
  <addr_street>35b Ebb Street</addr_street>
</property>
<property>
  <property_id>4251</property_id>
  <lat>-37.826138</lat>
  <lng>144.875342</lng>
  <addr_street>20 Derham Street</addr_street>
</property>
<property>
  <property_id>81642</property_id>
  <lat>-37.993957</lat>
  <lng>145.23225</lng>
  <addr_street>10 Claret Street</addr_street>
</property>
<property>
  <property_id>57492</property_id>
  <lat>-37.824509</lat>
  <lng>145.15598</lng>
  <addr_street>1/28 Wolseley Crescent</addr_street>
</property>
<property>
  <property_id>45675</property_id>
  <lat>-37.674225</lat>
  <lng>145.122151</lng>
  <addr_street>34 Mackelroy Road</addr_street>
</property>
<property>
  <property_id>21046</property_id>
  <lat>-37.76206207</lat>
  <lng>144.95770259999995</lng>
  <addr_street>32 Davison Street</addr_street>
</property>
<property>
  <property_id>30445</property_id>
  <lat>-37.767061</lat>
  <lng>145.013497</lng>
  <addr_street>82A Christmas Street</addr_street>
</property>
<property>
  <property_id>82930</property_id>
  <lat>-37.909222</lat>
  <lng>145.252002</lng>
  <addr_street>9 Valleyview Drive</addr_street>
</property>
<property>
  <property_id>93297</property_id>
  <lat>-38.015206</lat>
  <lng>145.099671</lng>
  <addr_street>39 Ebb Street</addr_street>
</property>
<property>
  <property_id>33993</property_id>
  <lat>-37.71521759</lat>
  <lng>145.01570130000005</lng>
  <addr_street>17 Lane Crescent</addr_street>
</property>
<property>
  <property_id>95450</property_id>
  <lat>-37.909219</lat>
  <lng>145.044145</lng>
  <addr_street>3 Chalmers Street</addr_street>
</property>
<property>
  <property_id>46024</property_id>
  <lat>-37.712266</lat>
  <lng>145.11934499999995</lng>
  <addr_street>31 Kelvin Avenue</addr_street>
</property>
<property>
  <property_id>27255</property_id>
  <lat>-37.603766</lat>
  <lng>144.928754</lng>
  <addr_street>54 Bridgewater Road</addr_street>
</property>
<property>
  <property_id>60536</property_id>
  <lat>-37.843286</lat>
  <lng>145.198482</lng>
  <addr_street>19 Caroben Avenue</addr_street>
</property>
<property>
  <property_id>3706</property_id>
  <lat>-37.814649</lat>
  <lng>144.889337</lng>
  <addr_street>59 Castlemaine Street</addr_street>
</property>
<property>
  <property_id>4822</property_id>
  <lat>-37.865744</lat>
  <lng>144.81675</lng>
  <addr_street>10 Wren Street</addr_street>
</property>
<property>
  <property_id>29734</property_id>
  <lat>-37.765198</lat>
  <lng>144.997654</lng>
  <addr_street>23 Beaconsfield Parade</addr_street>
</property>
<property>
  <property_id>16857</property_id>
  <lat>-37.69982147</lat>
  <lng>144.9424439</lng>
  <addr_street>23 Sadie Street</addr_street>
</property>
<property>
  <property_id>60213</property_id>
  <lat>-37.819219</lat>
  <lng>145.210254</lng>
  <addr_street>7 Forster Street</addr_street>
</property>
<property>
  <property_id>75857</property_id>
  <lat>-37.90186691</lat>
  <lng>145.1050415</lng>
  <addr_street>191 Huntingdale Road</addr_street>
</property>
<property>
  <property_id>44101</property_id>
  <lat>-37.71033900000001</lat>
  <lng>145.09551399999995</lng>
  <addr_street>107 Delta Road</addr_street>
</property>
<property>
  <property_id>68257</property_id>
  <lat>-37.850403</lat>
  <lng>145.01556399999996</lng>
  <addr_street>10 Clendon Road</addr_street>
</property>
<property>
  <property_id>69409</property_id>
  <lat>-37.868223</lat>
  <lng>145.101718</lng>
  <addr_street>1/7A Jordan Street</addr_street>
</property>
<property>
  <property_id>34635</property_id>
  <lat>-37.729264</lat>
  <lng>145.021386</lng>
  <addr_street>30 Ashton Street</addr_street>
</property>
<property>
  <property_id>81850</property_id>
  <lat>-37.997578</lat>
  <lng>145.240079</lng>
  <addr_street>17 Oak Avenue</addr_street>
</property>
<property>
  <property_id>94198</property_id>
  <lat>-38.07675070000001</lat>
  <lng>145.1290591</lng>
  <addr_street>38 Walkers Road</addr_street>
</property>
<property>
  <property_id>88987</property_id>
  <lat>-37.94860077</lat>
  <lng>145.0347748</lng>
  <addr_street>69 Tibrockney Street</addr_street>
</property>
<property>
  <property_id>84963</property_id>
  <lat>-37.880981</lat>
  <lng>144.989628</lng>
  <addr_street>43 Scott Street</addr_street>
</property>
<property>
  <property_id>85036</property_id>
  <lat>-37.878653</lat>
  <lng>144.987004</lng>
  <addr_street>59 Byron Street</addr_street>
</property>
<property>
  <property_id>88207</property_id>
  <lat>-37.943342</lat>
  <lng>145.048525</lng>
  <addr_street>4 Rhonda Court</addr_street>
</property>
<property>
  <property_id>18815</property_id>
  <lat>-37.676486</lat>
  <lng>144.936437</lng>
  <addr_street>4 KIEWA CRESCENT</addr_street>
</property>
<property>
  <property_id>45824</property_id>
  <lat>-37.719357</lat>
  <lng>145.128903</lng>
  <addr_street>138 Rattray Road</addr_street>
</property>
<property>
  <property_id>14917</property_id>
  <lat>-37.744391</lat>
  <lng>144.911372</lng>
  <addr_street>Unit 3,13 Winifred Street</addr_street>
</property>
<property>
  <property_id>10038</property_id>
  <lat>-37.7844</lat>
  <lng>144.929137</lng>
  <addr_street>13 Eltham Street</addr_street>
</property>
<property>
  <property_id>29106</property_id>
  <lat>-37.802376</lat>
  <lng>144.996228</lng>
  <addr_street>69 Yarra Street</addr_street>
</property>
<property>
  <property_id>17001</property_id>
  <lat>-37.708887</lat>
  <lng>144.92140700000004</lng>
  <addr_street>3 Lewis Street</addr_street>
</property>
<property>
  <property_id>34015</property_id>
  <lat>-37.720465</lat>
  <lng>144.999009</lng>
  <addr_street>17 Wright Street</addr_street>
</property>
<property>
  <property_id>19765</property_id>
  <lat>-37.672831</lat>
  <lng>144.893044</lng>
  <addr_street>5 Lockhart Avenue</addr_street>
</property>
<property>
  <property_id>70310</property_id>
  <lat>-37.870545</lat>
  <lng>145.075393</lng>
  <addr_street>79 Munro Avenue</addr_street>
</property>
<property>
  <property_id>19965</property_id>
  <lat>-37.796299</lat>
  <lng>144.953631</lng>
  <addr_street>45 Park Drive</addr_street>
</property>
<property>
  <property_id>41999</property_id>
  <lat>-37.736303</lat>
  <lng>145.076901</lng>
  <addr_street>286 Lower Plenty Road</addr_street>
</property>
<property>
  <property_id>86602</property_id>
  <lat>-37.89264</lat>
  <lng>144.993791</lng>
  <addr_street>33 Foote Street</addr_street>
</property>
<property>
  <property_id>86264</property_id>
  <lat>-37.917811</lat>
  <lng>145.004655</lng>
  <addr_street>19 Laburnum Street</addr_street>
</property>
<property>
  <property_id>35262</property_id>
  <lat>-37.707255</lat>
  <lng>145.019322</lng>
  <addr_street>59 Miranda Road</addr_street>
</property>
<property>
  <property_id>51877</property_id>
  <lat>-37.800773</lat>
  <lng>145.169794</lng>
  <addr_street>3 Ananda Court</addr_street>
</property>
<property>
  <property_id>15346</property_id>
  <lat>-37.740326</lat>
  <lng>144.920639</lng>
  <addr_street>48 Upland Road</addr_street>
</property>
<property>
  <property_id>24737</property_id>
  <lat>-37.675</lat>
  <lng>144.961342</lng>
  <addr_street>37 Sycamore Crescent</addr_street>
</property>
<property>
  <property_id>2276</property_id>
  <lat>-37.778708</lat>
  <lng>144.871268</lng>
  <addr_street>42 Omar Street</addr_street>
</property>
<property>
  <property_id>8211</property_id>
  <lat>-37.74736404</lat>
  <lng>144.74452209999995</lng>
  <addr_street>19 Saxby Court</addr_street>
</property>
<property>
  <property_id>30417</property_id>
  <lat>-37.775129</lat>
  <lng>144.990899</lng>
  <addr_street>8 Gordon Grove</addr_street>
</property>
<property>
  <property_id>58719</property_id>
  <lat>-37.81256485</lat>
  <lng>145.18318180000003</lng>
  <addr_street>21 Crest Grove</addr_street>
</property>
<property>
  <property_id>81104</property_id>
  <lat>-37.988217</lat>
  <lng>145.225926</lng>
  <addr_street>3 Arnold Court</addr_street>
</property>
<property>
  <property_id>9622</property_id>
  <lat>-37.847381</lat>
  <lng>144.722336</lng>
  <addr_street>69 James Cook Drive</addr_street>
</property>
<property>
  <property_id>55356</property_id>
  <lat>-37.84283066</lat>
  <lng>145.0940094</lng>
  <addr_street>24 Thomas Street</addr_street>
</property>
<property>
  <property_id>18261</property_id>
  <lat>-37.692212</lat>
  <lng>144.925225</lng>
  <addr_street>159 Widford Street</addr_street>
</property>
<property>
  <property_id>27782</property_id>
  <lat>-37.598997</lat>
  <lng>144.913221</lng>
  <addr_street>8 Jirrahlinga Terrace</addr_street>
</property>
<property>
  <property_id>60788</property_id>
  <lat>-37.842897</lat>
  <lng>145.196126</lng>
  <addr_street>5 Bellbird Crescent</addr_street>
</property>
<property>
  <property_id>62159</property_id>
  <lat>-37.771157</lat>
  <lng>145.251289</lng>
  <addr_street>6 Sandhurst Grove</addr_street>
</property>
<property>
  <property_id>93574</property_id>
  <lat>-37.98774</lat>
  <lng>145.087999</lng>
  <addr_street>61A Evan Street</addr_street>
</property>
<property>
  <property_id>21024</property_id>
  <lat>-37.756853</lat>
  <lng>144.97305500000004</lng>
  <addr_street>31 Grant Street</addr_street>
</property>
<property>
  <property_id>4305</property_id>
  <lat>-37.847359</lat>
  <lng>144.873231</lng>
  <addr_street>26 Fowler Crescent</addr_street>
</property>
<property>
  <property_id>6656</property_id>
  <lat>-37.781192</lat>
  <lng>144.822197</lng>
  <addr_street>35 Sydney Street</addr_street>
</property>
<property>
  <property_id>5732</property_id>
  <lat>-37.78253</lat>
  <lng>144.84798500000005</lng>
  <addr_street>33 McLennan Street</addr_street>
</property>
<property>
  <property_id>87751</property_id>
  <lat>-37.942304</lat>
  <lng>145.00662</lng>
  <addr_street>45 Linacre Road</addr_street>
</property>
<property>
  <property_id>40271</property_id>
  <lat>-37.701032</lat>
  <lng>145.071675</lng>
  <addr_street>2A Warrawee Drive</addr_street>
</property>
<property>
  <property_id>70868</property_id>
  <lat>-37.884103</lat>
  <lng>145.107167</lng>
  <addr_street>7 Savannah Place</addr_street>
</property>
<property>
  <property_id>54004</property_id>
  <lat>-37.815788</lat>
  <lng>145.04055</lng>
  <addr_street>10 Percy Street</addr_street>
</property>
<property>
  <property_id>63858</property_id>
  <lat>-37.772366</lat>
  <lng>145.296061</lng>
  <addr_street>2/31a Rodleigh Street</addr_street>
</property>
<property>
  <property_id>42930</property_id>
  <lat>-37.718321</lat>
  <lng>145.077328</lng>
  <addr_street>19 Lindsay Street</addr_street>
</property>
<property>
  <property_id>37897</property_id>
  <lat>-37.77755356</lat>
  <lng>145.03135680000003</lng>
  <addr_street>1 Yarana Road</addr_street>
</property>
<property>
  <property_id>72105</property_id>
  <lat>-37.83906</lat>
  <lng>145.260849</lng>
  <addr_street>18A Orchard Road</addr_street>
</property>
<property>
  <property_id>89070</property_id>
  <lat>-37.950455</lat>
  <lng>145.044521</lng>
  <addr_street>9 View Street</addr_street>
</property>
<property>
  <property_id>11150</property_id>
  <lat>-37.78356552</lat>
  <lng>144.8960724</lng>
  <addr_street>15 Magazine Way</addr_street>
</property>
<property>
  <property_id>8617</property_id>
  <lat>-37.762227</lat>
  <lng>144.78686299999995</lng>
  <addr_street>7 Carmody Drive</addr_street>
</property>
<property>
  <property_id>65011</property_id>
  <lat>-37.802398</lat>
  <lng>145.299362</lng>
  <addr_street>Unit 10, 394 MT DANDENONG ROAD</addr_street>
</property>
<property>
  <property_id>68886</property_id>
  <lat>-37.852522</lat>
  <lng>145.032783</lng>
  <addr_street>19A Embling Road</addr_street>
</property>
<property>
  <property_id>77763</property_id>
  <lat>-37.92705917</lat>
  <lng>145.2041931</lng>
  <addr_street>24 Alderbrook Drive</addr_street>
</property>
<property>
  <property_id>18909</property_id>
  <lat>-37.66547775</lat>
  <lng>144.9352722</lng>
  <addr_street>469 Barry Rd</addr_street>
</property>
<property>
  <property_id>89348</property_id>
  <lat>-37.958969</lat>
  <lng>145.022661</lng>
  <addr_street>22 Reno Road</addr_street>
</property>
<property>
  <property_id>89699</property_id>
  <lat>-37.9529686</lat>
  <lng>145.0055847</lng>
  <addr_street>8A Sims Street</addr_street>
</property>
<property>
  <property_id>40466</property_id>
  <lat>-37.687751</lat>
  <lng>145.062099</lng>
  <addr_street>36 Taunton Drive</addr_street>
</property>
<property>
  <property_id>79263</property_id>
  <lat>-37.95904922</lat>
  <lng>145.15618899999996</lng>
  <addr_street>6 Vardon Street</addr_street>
</property>
<property>
  <property_id>5300</property_id>
  <lat>-37.864023</lat>
  <lng>144.819459</lng>
  <addr_street>67 Rose Street</addr_street>
</property>
<property>
  <property_id>11912</property_id>
  <lat>-37.712962</lat>
  <lng>144.82674699999995</lng>
  <addr_street>7 Evan Court</addr_street>
</property>
<property>
  <property_id>2933</property_id>
  <lat>-37.814341</lat>
  <lng>144.89051</lng>
  <addr_street>17 Birmingham Street</addr_street>
</property>
<property>
  <property_id>52551</property_id>
  <lat>-37.832849</lat>
  <lng>144.998071</lng>
  <addr_street>186 Brighton Street</addr_street>
</property>
<property>
  <property_id>26221</property_id>
  <lat>-37.60387039</lat>
  <lng>144.91952519999995</lng>
  <addr_street>27 Scottsdale Court</addr_street>
</property>
<property>
  <property_id>61176</property_id>
  <lat>-37.817815</lat>
  <lng>145.228523</lng>
  <addr_street>11 James Street</addr_street>
</property>
<property>
  <property_id>30176</property_id>
  <lat>-37.78055573</lat>
  <lng>144.99337769999997</lng>
  <addr_street>5 Westgarth Street</addr_street>
</property>
<property>
  <property_id>30348</property_id>
  <lat>-37.768304</lat>
  <lng>145.000235</lng>
  <addr_street>7 Robbs Parade</addr_street>
</property>
<property>
  <property_id>68331</property_id>
  <lat>-37.854252</lat>
  <lng>145.015053</lng>
  <addr_street>18A New Street</addr_street>
</property>
<property>
  <property_id>5167</property_id>
  <lat>-37.867356</lat>
  <lng>144.819074</lng>
  <addr_street>37A Rose Street</addr_street>
</property>
<property>
  <property_id>76764</property_id>
  <lat>-37.923059</lat>
  <lng>145.129102</lng>
  <addr_street>30 Brushbox Court</addr_street>
</property>
<property>
  <property_id>64329</property_id>
  <lat>-37.805345</lat>
  <lng>145.276452</lng>
  <addr_street>35 Vinter Avenue</addr_street>
</property>
<property>
  <property_id>94269</property_id>
  <lat>-37.95372800000001</lat>
  <lng>145.083778</lng>
  <addr_street>1/49 Kingston Road</addr_street>
</property>
<property>
  <property_id>46716</property_id>
  <lat>-37.727963</lat>
  <lng>145.13535</lng>
  <addr_street>175 Bolton Street</addr_street>
</property>
<property>
  <property_id>76671</property_id>
  <lat>-37.916353</lat>
  <lng>145.11543</lng>
  <addr_street>2/50 Edinburgh St</addr_street>
</property>
<property>
  <property_id>93943</property_id>
  <lat>-38.067581</lat>
  <lng>145.12231699999995</lng>
  <addr_street>44 Patterson Street</addr_street>
</property>
<property>
  <property_id>67272</property_id>
  <lat>-37.775358</lat>
  <lng>145.356341</lng>
  <addr_street>25 Lakeview Drive</addr_street>
</property>
<property>
  <property_id>33973</property_id>
  <lat>-37.695404</lat>
  <lng>145.008474</lng>
  <addr_street>16A Merrilands Road</addr_street>
</property>
<property>
  <property_id>36471</property_id>
  <lat>-37.675385</lat>
  <lng>145.037242</lng>
  <addr_street>48 McKimmies Road</addr_street>
</property>
<property>
  <property_id>53820</property_id>
  <lat>-37.816573</lat>
  <lng>144.994481</lng>
  <addr_street>81 Erin Street</addr_street>
</property>
<property>
  <property_id>24491</property_id>
  <lat>-37.694575</lat>
  <lng>144.967532</lng>
  <addr_street>6 Brian Street</addr_street>
</property>
<property>
  <property_id>58311</property_id>
  <lat>-37.819585</lat>
  <lng>145.149477</lng>
  <addr_street>7/19-21 Railway Road</addr_street>
</property>
<property>
  <property_id>43576</property_id>
  <lat>-37.710096</lat>
  <lng>145.076596</lng>
  <addr_street>2 Valda Street</addr_street>
</property>
<property>
  <property_id>66168</property_id>
  <lat>-37.788876</lat>
  <lng>145.32239099999995</lng>
  <addr_street>3 Bridges Avenue</addr_street>
</property>
<property>
  <property_id>70456</property_id>
  <lat>-37.880762</lat>
  <lng>145.10010400000004</lng>
  <addr_street>1/5-6 Walcha Court</addr_street>
</property>
<property>
  <property_id>37914</property_id>
  <lat>-37.77398400000001</lat>
  <lng>145.02438</lng>
  <addr_street>100 Perry Street</addr_street>
</property>
<property>
  <property_id>63940</property_id>
  <lat>-37.798145</lat>
  <lng>145.294033</lng>
  <addr_street>21A St. Georges Crescent</addr_street>
</property>
<property>
  <property_id>68063</property_id>
  <lat>-37.846948</lat>
  <lng>145.00679499999995</lng>
  <addr_street>31 Mathoura Road</addr_street>
</property>
<property>
  <property_id>17171</property_id>
  <lat>-37.701436</lat>
  <lng>144.912146</lng>
  <addr_street>3a Becket Street South</addr_street>
</property>
<property>
  <property_id>50828</property_id>
  <lat>-37.77753</lat>
  <lng>145.11391</lng>
  <addr_street>148 High Street</addr_street>
</property>
<property>
  <property_id>77306</property_id>
  <lat>-37.939733</lat>
  <lng>145.109115</lng>
  <addr_street>9 Loddon Court</addr_street>
</property>
<property>
  <property_id>51154</property_id>
  <lat>-37.776846</lat>
  <lng>145.114746</lng>
  <addr_street>27 Soderlund Drive</addr_street>
</property>
<property>
  <property_id>72082</property_id>
  <lat>-37.855681</lat>
  <lng>145.266805</lng>
  <addr_street>17 Edward Street</addr_street>
</property>
<property>
  <property_id>36495</property_id>
  <lat>-37.6759515</lat>
  <lng>145.0402427</lng>
  <addr_street>5/68-92 McKimmies Road</addr_street>
</property>
<property>
  <property_id>64397</property_id>
  <lat>-37.801231</lat>
  <lng>145.299359</lng>
  <addr_street>392 Mount Dandenong Road</addr_street>
</property>
<property>
  <property_id>37733</property_id>
  <lat>-37.628173</lat>
  <lng>145.03007</lng>
  <addr_street>7 Waterlily Drive</addr_street>
</property>
<property>
  <property_id>13493</property_id>
  <lat>-37.710919</lat>
  <lng>144.771656</lng>
  <addr_street>8 Marlock Way</addr_street>
</property>
<property>
  <property_id>85304</property_id>
  <lat>-37.879006</lat>
  <lng>145.005069</lng>
  <addr_street>17 Liscard Street</addr_street>
</property>
<property>
  <property_id>74240</property_id>
  <lat>-37.880931</lat>
  <lng>145.01941100000005</lng>
  <addr_street>14 Harcourt Avenue</addr_street>
</property>
<property>
  <property_id>27082</property_id>
  <lat>-37.594468</lat>
  <lng>144.933516</lng>
  <addr_street>5 Coral Court</addr_street>
</property>
<property>
  <property_id>287</property_id>
  <lat>-37.806047</lat>
  <lng>144.888879</lng>
  <addr_street>122 Charles Street</addr_street>
</property>
<property>
  <property_id>60128</property_id>
  <lat>-37.806318</lat>
  <lng>145.197301</lng>
  <addr_street>6 Beaufort Street</addr_street>
</property>
<property>
  <property_id>58841</property_id>
  <lat>-37.810281</lat>
  <lng>145.17462700000004</lng>
  <addr_street>3 Gladys Street</addr_street>
</property>
<property>
  <property_id>5572</property_id>
  <lat>-37.78223038</lat>
  <lng>144.8524017</lng>
  <addr_street>19 Menzies Street</addr_street>
</property>
<property>
  <property_id>77250</property_id>
  <lat>-37.934367</lat>
  <lng>145.101163</lng>
  <addr_street>49 Dalbeattie Drive</addr_street>
</property>
<property>
  <property_id>55009</property_id>
  <lat>-37.842791</lat>
  <lng>145.080071</lng>
  <addr_street>13 Nevis Street</addr_street>
</property>
<property>
  <property_id>60194</property_id>
  <lat>-37.827839</lat>
  <lng>145.192971</lng>
  <addr_street>67 Alwyn Street</addr_street>
</property>
<property>
  <property_id>88452</property_id>
  <lat>-37.94937</lat>
  <lng>145.024148</lng>
  <addr_street>13 Ashwood Avenue</addr_street>
</property>
<property>
  <property_id>90575</property_id>
  <lat>-37.961418</lat>
  <lng>145.079852</lng>
  <addr_street>34 Beatrice Street</addr_street>
</property>
<property>
  <property_id>72975</property_id>
  <lat>-37.84797287</lat>
  <lng>145.29907230000003</lng>
  <addr_street>143 Albert Avenue</addr_street>
</property>
<property>
  <property_id>42109</property_id>
  <lat>-37.736168</lat>
  <lng>145.081059</lng>
  <addr_street>34 Kambea Crescent</addr_street>
</property>
<property>
  <property_id>12757</property_id>
  <lat>-37.724471</lat>
  <lng>144.779001</lng>
  <addr_street>24 Tennyson Drive</addr_street>
</property>
<property>
  <property_id>17669</property_id>
  <lat>-37.700371</lat>
  <lng>144.936242</lng>
  <addr_street>74 Maude Avenue</addr_street>
</property>
<property>
  <property_id>54179</property_id>
  <lat>-37.822521</lat>
  <lng>145.04144399999996</lng>
  <addr_street>18 George Street</addr_street>
</property>
<property>
  <property_id>52634</property_id>
  <lat>-37.82181168</lat>
  <lng>144.98983769999995</lng>
  <addr_street>2 Richmond Terrace</addr_street>
</property>
<property>
  <property_id>60320</property_id>
  <lat>-37.813253</lat>
  <lng>145.198571</lng>
  <addr_street>9 Austin Street</addr_street>
</property>
<property>
  <property_id>45204</property_id>
  <lat>-37.698828000000006</lat>
  <lng>145.09514</lng>
  <addr_street>5 Pinehills Drive</addr_street>
</property>
<property>
  <property_id>7771</property_id>
  <lat>-37.781786</lat>
  <lng>144.79630500000005</lng>
  <addr_street>2 West Street</addr_street>
</property>
<property>
  <property_id>6637</property_id>
  <lat>-37.78078079</lat>
  <lng>144.8401337</lng>
  <addr_street>34 Dulcie Street</addr_street>
</property>
<property>
  <property_id>36942</property_id>
  <lat>-37.631827</lat>
  <lng>145.03579</lng>
  <addr_street>17 Two Creek Drive</addr_street>
</property>
<property>
  <property_id>7529</property_id>
  <lat>-37.749585</lat>
  <lng>144.76163400000004</lng>
  <addr_street>5 College Place</addr_street>
</property>
<property>
  <property_id>89644</property_id>
  <lat>-37.946282</lat>
  <lng>145.008229</lng>
  <addr_street>7 Henry Street</addr_street>
</property>
<property>
  <property_id>80882</property_id>
  <lat>-37.99517822</lat>
  <lng>145.2362213</lng>
  <addr_street>17 Box Street</addr_street>
</property>
<property>
  <property_id>49483</property_id>
  <lat>-37.816306</lat>
  <lng>145.073918</lng>
  <addr_street>4 Reumah Court</addr_street>
</property>
<property>
  <property_id>51676</property_id>
  <lat>-37.794335</lat>
  <lng>145.130519</lng>
  <addr_street>8 Grange Park Avenue</addr_street>
</property>
<property>
  <property_id>45861</property_id>
  <lat>-37.711591</lat>
  <lng>145.122788</lng>
  <addr_street>17 Baldwin Avenue</addr_street>
</property>
<property>
  <property_id>12219</property_id>
  <lat>-37.707291</lat>
  <lng>144.777555</lng>
  <addr_street>12 Lady Rose Crescent</addr_street>
</property>
<property>
  <property_id>96322</property_id>
  <lat>-37.92552948</lat>
  <lng>145.04338069999997</lng>
  <addr_street>9 Roma Street</addr_street>
</property>
<property>
  <property_id>93850</property_id>
  <lat>-38.067389</lat>
  <lng>145.124521</lng>
  <addr_street>2 Coast Banksia Drive</addr_street>
</property>
<property>
  <property_id>15045</property_id>
  <lat>-37.724335</lat>
  <lng>144.910928</lng>
  <addr_street>17 Streldon Avenue</addr_street>
</property>
<property>
  <property_id>67614</property_id>
  <lat>-37.745506</lat>
  <lng>145.339022</lng>
  <addr_street>6 Russia Mews</addr_street>
</property>
<property>
  <property_id>54848</property_id>
  <lat>-37.836998</lat>
  <lng>145.078501</lng>
  <addr_street>1/27 Glyndon Road</addr_street>
</property>
<property>
  <property_id>55075</property_id>
  <lat>-37.83385300000001</lat>
  <lng>145.074858</lng>
  <addr_street>15/700 Riversdale Road</addr_street>
</property>
<property>
  <property_id>11264</property_id>
  <lat>-37.780934</lat>
  <lng>144.888815</lng>
  <addr_street>23 Macedon Street</addr_street>
</property>
<property>
  <property_id>94682</property_id>
  <lat>-37.932963</lat>
  <lng>145.04062</lng>
  <addr_street>12 Fairbank Road</addr_street>
</property>
<property>
  <property_id>78316</property_id>
  <lat>-37.928246</lat>
  <lng>145.160465</lng>
  <addr_street>7 Carson Street</addr_street>
</property>
<property>
  <property_id>94033</property_id>
  <lat>-38.069552</lat>
  <lng>145.128199</lng>
  <addr_street>74 Mascot Avenue</addr_street>
</property>
<property>
  <property_id>62611</property_id>
  <lat>-37.830483</lat>
  <lng>145.258673</lng>
  <addr_street>17 Louis Street</addr_street>
</property>
<property>
  <property_id>37242</property_id>
  <lat>-37.62787247</lat>
  <lng>145.0293427</lng>
  <addr_street>3 Nesting Court</addr_street>
</property>
<property>
  <property_id>38926</property_id>
  <lat>-37.77727700000001</lat>
  <lng>145.03616499999995</lng>
  <addr_street>5 Kingsley Street</addr_street>
</property>
<property>
  <property_id>37013</property_id>
  <lat>-37.654363</lat>
  <lng>145.035718</lng>
  <addr_street>2 Kantiki Drive</addr_street>
</property>
<property>
  <property_id>38903</property_id>
  <lat>-37.75894165</lat>
  <lng>145.0483856</lng>
  <addr_street>43 Melcombe Road</addr_street>
</property>
<property>
  <property_id>13586</property_id>
  <lat>-37.709381</lat>
  <lng>144.772551</lng>
  <addr_street>9 Rose Hedge Drive</addr_street>
</property>
<property>
  <property_id>57944</property_id>
  <lat>-37.81167</lat>
  <lng>145.157221</lng>
  <addr_street>2a Cootamundra Crescent</addr_street>
</property>
<property>
  <property_id>10865</property_id>
  <lat>-37.785644</lat>
  <lng>144.923877</lng>
  <addr_street>77 Edinburgh Street</addr_street>
</property>
<property>
  <property_id>65212</property_id>
  <lat>-37.805034</lat>
  <lng>145.303176</lng>
  <addr_street>2/41 Byron Road</addr_street>
</property>
<property>
  <property_id>32829</property_id>
  <lat>-37.75247574</lat>
  <lng>145.00791930000003</lng>
  <addr_street>47 Carlisle Street</addr_street>
</property>
<property>
  <property_id>62008</property_id>
  <lat>-37.776544</lat>
  <lng>145.240946</lng>
  <addr_street>46 Little John Road</addr_street>
</property>
<property>
  <property_id>91358</property_id>
  <lat>-37.977074</lat>
  <lng>145.043385</lng>
  <addr_street>19 Cavell Court</addr_street>
</property>
<property>
  <property_id>53946</property_id>
  <lat>-37.817424</lat>
  <lng>145.005961</lng>
  <addr_street>9a Murphy Street</addr_street>
</property>
<property>
  <property_id>56812</property_id>
  <lat>-37.85604477</lat>
  <lng>145.1210938</lng>
  <addr_street>6 Ian Grove</addr_street>
</property>
<property>
  <property_id>22777</property_id>
  <lat>-37.74665200000001</lat>
  <lng>144.97061599999995</lng>
  <addr_street>41 Coburg Street</addr_street>
</property>
<property>
  <property_id>66494</property_id>
  <lat>-37.772075</lat>
  <lng>145.311127</lng>
  <addr_street>50A HIGHVIEW DRIVE</addr_street>
</property>
<property>
  <property_id>6190</property_id>
  <lat>-37.785091</lat>
  <lng>144.843424</lng>
  <addr_street>14 Thomson Street</addr_street>
</property>
<property>
  <property_id>1944</property_id>
  <lat>-37.78668</lat>
  <lng>144.87983</lng>
  <addr_street>2 Havelock Street</addr_street>
</property>
<property>
  <property_id>45159</property_id>
  <lat>-37.698746</lat>
  <lng>145.127543</lng>
  <addr_street>49 Tallow Wood Drive</addr_street>
</property>
<property>
  <property_id>75582</property_id>
  <lat>-37.894626</lat>
  <lng>145.08154299999995</lng>
  <addr_street>1/46 Euston Road</addr_street>
</property>
<property>
  <property_id>66434</property_id>
  <lat>-37.776847</lat>
  <lng>145.32340200000004</lng>
  <addr_street>48 Struan Avenue</addr_street>
</property>
<property>
  <property_id>80116</property_id>
  <lat>-37.987915</lat>
  <lng>145.158081</lng>
  <addr_street>31 Eildon Drive</addr_street>
</property>
<property>
  <property_id>32554</property_id>
  <lat>-37.748586</lat>
  <lng>144.99113</lng>
  <addr_street>3 Scotia Street</addr_street>
</property>
<property>
  <property_id>55479</property_id>
  <lat>-37.84365</lat>
  <lng>145.05538700000002</lng>
  <addr_street>3 Middle Road</addr_street>
</property>
<property>
  <property_id>87653</property_id>
  <lat>-37.93856812</lat>
  <lng>144.9998627</lng>
  <addr_street>35 Orlando Street</addr_street>
</property>
<property>
  <property_id>44843</property_id>
  <lat>-37.688543</lat>
  <lng>145.126075</lng>
  <addr_street>3 Larool Avenue</addr_street>
</property>
<property>
  <property_id>87170</property_id>
  <lat>-37.910844</lat>
  <lng>145.00716</lng>
  <addr_street>871 Hampton Street</addr_street>
</property>
<property>
  <property_id>74705</property_id>
  <lat>-37.89729309</lat>
  <lng>145.0648956</lng>
  <addr_street>183 Murrumbeena Road</addr_street>
</property>
<property>
  <property_id>58345</property_id>
  <lat>-37.827468</lat>
  <lng>145.14750800000004</lng>
  <addr_street>8 Haydn Street</addr_street>
</property>
<property>
  <property_id>70162</property_id>
  <lat>-37.870884</lat>
  <lng>145.10591100000005</lng>
  <addr_street>5 Station Avenue</addr_street>
</property>
<property>
  <property_id>9866</property_id>
  <lat>-37.88248825</lat>
  <lng>144.6433868</lng>
  <addr_street>7A John Ball Place</addr_street>
</property>
<property>
  <property_id>5055</property_id>
  <lat>-37.867118</lat>
  <lng>144.836396</lng>
  <addr_street>22 Bayview Street</addr_street>
</property>
<property>
  <property_id>75025</property_id>
  <lat>-37.900948</lat>
  <lng>145.054474</lng>
  <addr_street>313 Koornang Road</addr_street>
</property>
<property>
  <property_id>22994</property_id>
  <lat>-37.746461</lat>
  <lng>144.96903400000005</lng>
  <addr_street>59 Sheffield Street</addr_street>
</property>
<property>
  <property_id>9819</property_id>
  <lat>-37.888148</lat>
  <lng>144.637947</lng>
  <addr_street>4 Bemm Court</addr_street>
</property>
<property>
  <property_id>36380</property_id>
  <lat>-37.672441</lat>
  <lng>145.038595</lng>
  <addr_street>3/10 Winston Street</addr_street>
</property>
<property>
  <property_id>79798</property_id>
  <lat>-37.99078751</lat>
  <lng>145.16700749999995</lng>
  <addr_street>18 Parkland Court</addr_street>
</property>
<property>
  <property_id>45317</property_id>
  <lat>-37.693533</lat>
  <lng>145.13051299999995</lng>
  <addr_street>6 Covala Court</addr_street>
</property>
<property>
  <property_id>76752</property_id>
  <lat>-37.920566</lat>
  <lng>145.112506</lng>
  <addr_street>3 Ormond Road</addr_street>
</property>
<property>
  <property_id>66406</property_id>
  <lat>-37.776629</lat>
  <lng>145.32875</lng>
  <addr_street>432 Hull Road</addr_street>
</property>
<property>
  <property_id>1822</property_id>
  <lat>-37.80997849</lat>
  <lng>144.8757935</lng>
  <addr_street>15 Chatfield Street</addr_street>
</property>
<property>
  <property_id>22684</property_id>
  <lat>-37.73420334</lat>
  <lng>144.95555119999997</lng>
  <addr_street>37 Webb Street</addr_street>
</property>
<property>
  <property_id>32782</property_id>
  <lat>-37.743781</lat>
  <lng>145.011478</lng>
  <addr_street>43 David Street</addr_street>
</property>
<property>
  <property_id>36691</property_id>
  <lat>-37.63986</lat>
  <lng>145.03253999999995</lng>
  <addr_street>10 Barnard Court</addr_street>
</property>
<property>
  <property_id>35412</property_id>
  <lat>-37.713141</lat>
  <lng>145.017033</lng>
  <addr_street>66 Strathmerton Street</addr_street>
</property>
<property>
  <property_id>26009</property_id>
  <lat>-37.59451</lat>
  <lng>144.925851</lng>
  <addr_street>22 Studley Street</addr_street>
</property>
<property>
  <property_id>16941</property_id>
  <lat>-37.697779</lat>
  <lng>144.907254</lng>
  <addr_street>27 Moonee Boulevard</addr_street>
</property>
<property>
  <property_id>30032</property_id>
  <lat>-37.77463</lat>
  <lng>145.008878</lng>
  <addr_street>4 Alphington Street</addr_street>
</property>
<property>
  <property_id>60847</property_id>
  <lat>-37.841731</lat>
  <lng>145.20056</lng>
  <addr_street>6 Carlinga Drive</addr_street>
</property>
<property>
  <property_id>13948</property_id>
  <lat>-37.759278</lat>
  <lng>144.893604</lng>
  <addr_street>18 Caroline Street</addr_street>
</property>
<property>
  <property_id>57799</property_id>
  <lat>-37.8197403</lat>
  <lng>145.14234919999996</lng>
  <addr_street>2/6 Sergeant Street</addr_street>
</property>
<property>
  <property_id>18294</property_id>
  <lat>-37.69141</lat>
  <lng>144.92549</lng>
  <addr_street>169 Widford Street</addr_street>
</property>
<property>
  <property_id>90016</property_id>
  <lat>-37.96311951</lat>
  <lng>145.06776430000005</lng>
  <addr_street>14 Evergreen Circuit</addr_street>
</property>
<property>
  <property_id>45517</property_id>
  <lat>-37.704925</lat>
  <lng>145.11459399999995</lng>
  <addr_street>8 Strickland Court</addr_street>
</property>
<property>
  <property_id>19860</property_id>
  <lat>-37.673393</lat>
  <lng>144.909405</lng>
  <addr_street>9 Miram Court</addr_street>
</property>
<property>
  <property_id>24698</property_id>
  <lat>-37.669617</lat>
  <lng>144.948754</lng>
  <addr_street>26 Dunstan Parade</addr_street>
</property>
<property>
  <property_id>15997</property_id>
  <lat>-37.70414352</lat>
  <lng>144.88214109999996</lng>
  <addr_street>2/34 Waratah Avenue</addr_street>
</property>
<property>
  <property_id>38939</property_id>
  <lat>-37.765556</lat>
  <lng>145.036014</lng>
  <addr_street>5/22 Oriel Road</addr_street>
</property>
<property>
  <property_id>62513</property_id>
  <lat>-37.828429</lat>
  <lng>145.242555</lng>
  <addr_street>11 Viviani Crescent</addr_street>
</property>
<property>
  <property_id>40784</property_id>
  <lat>-37.70823669</lat>
  <lng>145.0558929</lng>
  <addr_street>5 Moreton Crescent</addr_street>
</property>
<property>
  <property_id>3901</property_id>
  <lat>-37.819367</lat>
  <lng>144.890184</lng>
  <addr_street>80 Ballarat Street</addr_street>
</property>
<property>
  <property_id>23918</property_id>
  <lat>-37.698172</lat>
  <lng>144.97421</lng>
  <addr_street>11 Twyford Street</addr_street>
</property>
<property>
  <property_id>34423</property_id>
  <lat>-37.7030269</lat>
  <lng>145.0286303</lng>
  <addr_street>25 Invermay Street</addr_street>
</property>
<property>
  <property_id>4819</property_id>
  <lat>-37.859141</lat>
  <lng>144.821418</lng>
  <addr_street>10 Rush Court</addr_street>
</property>
<property>
  <property_id>78528</property_id>
  <lat>-37.942489</lat>
  <lng>145.153669</lng>
  <addr_street>100 Springvale Road</addr_street>
</property>
<property>
  <property_id>52242</property_id>
  <lat>-37.8258</lat>
  <lng>145.009473</lng>
  <addr_street>124 Stawell Street</addr_street>
</property>
<property>
  <property_id>86667</property_id>
  <lat>-37.925152</lat>
  <lng>145.003959</lng>
  <addr_street>38 Champion Street</addr_street>
</property>
<property>
  <property_id>97030</property_id>
  <lat>-38.000617</lat>
  <lng>145.288299</lng>
  <addr_street>76 Emily Drive</addr_street>
</property>
<property>
  <property_id>901</property_id>
  <lat>-37.8013</lat>
  <lng>144.889875</lng>
  <addr_street>35 Buckingham</addr_street>
</property>
<property>
  <property_id>51378</property_id>
  <lat>-37.784418</lat>
  <lng>145.102393</lng>
  <addr_street>4 Parkview Place</addr_street>
</property>
<property>
  <property_id>82220</property_id>
  <lat>-37.97955704</lat>
  <lng>145.23745730000005</lng>
  <addr_street>46 Botanical Grove</addr_street>
</property>
<property>
  <property_id>60563</property_id>
  <lat>-37.83818</lat>
  <lng>145.196185</lng>
  <addr_street>2 Kingsclere Street</addr_street>
</property>
<property>
  <property_id>96815</property_id>
  <lat>-38.001081</lat>
  <lng>145.264327</lng>
  <addr_street>4 Gina Court</addr_street>
</property>
<property>
  <property_id>47223</property_id>
  <lat>-37.717399</lat>
  <lng>145.156949</lng>
  <addr_street>47 Glenister Drive</addr_street>
</property>
<property>
  <property_id>11611</property_id>
  <lat>-37.768541</lat>
  <lng>144.89836599999995</lng>
  <addr_street>8 Navigator Street</addr_street>
</property>
<property>
  <property_id>50754</property_id>
  <lat>-37.791664</lat>
  <lng>145.13781200000003</lng>
  <addr_street>11 Wilma Court</addr_street>
</property>
<property>
  <property_id>60539</property_id>
  <lat>-37.841846</lat>
  <lng>145.199479</lng>
  <addr_street>19 Marina Street</addr_street>
</property>
<property>
  <property_id>68280</property_id>
  <lat>-37.85264587</lat>
  <lng>145.0209045</lng>
  <addr_street>119 Kooyong Road</addr_street>
</property>
<property>
  <property_id>40468</property_id>
  <lat>-37.701746</lat>
  <lng>145.078873</lng>
  <addr_street>360 Grimshaw Street</addr_street>
</property>
<property>
  <property_id>81805</property_id>
  <lat>-37.981617</lat>
  <lng>145.23675500000004</lng>
  <addr_street>15 Cootamundra Street,</addr_street>
</property>
<property>
  <property_id>32923</property_id>
  <lat>-37.735725</lat>
  <lng>145.020299</lng>
  <addr_street>51 Gordon Grove</addr_street>
</property>
<property>
  <property_id>13993</property_id>
  <lat>-37.755772</lat>
  <lng>144.900475</lng>
  <addr_street>2 Aberdeen Street</addr_street>
</property>
<property>
  <property_id>27161</property_id>
  <lat>-37.57591</lat>
  <lng>144.930576</lng>
  <addr_street>5 Scarborough Terrace</addr_street>
</property>
<property>
  <property_id>79382</property_id>
  <lat>-37.949559</lat>
  <lng>145.15813500000004</lng>
  <addr_street>8 Merton St</addr_street>
</property>
<property>
  <property_id>83511</property_id>
  <lat>-37.849527</lat>
  <lng>144.988543</lng>
  <addr_street>14 Doon Street</addr_street>
</property>
<property>
  <property_id>20656</property_id>
  <lat>-37.772656</lat>
  <lng>144.950009</lng>
  <addr_street>176 Union Street</addr_street>
</property>
<property>
  <property_id>12387</property_id>
  <lat>-37.6943161</lat>
  <lng>144.76254</lng>
  <addr_street>15/555 Melton Hwy</addr_street>
</property>
<property>
  <property_id>336</property_id>
  <lat>-37.80729675</lat>
  <lng>144.89094540000005</lng>
  <addr_street>14 Greig Street</addr_street>
</property>
<property>
  <property_id>33800</property_id>
  <lat>-37.698978</lat>
  <lng>145.019552</lng>
  <addr_street>135 Cheddar Road</addr_street>
</property>
<property>
  <property_id>40413</property_id>
  <lat>-37.67910767</lat>
  <lng>145.0487976</lng>
  <addr_street>33 Scarlet Drive</addr_street>
</property>
<property>
  <property_id>24603</property_id>
  <lat>-37.69869</lat>
  <lng>144.976519</lng>
  <addr_street>8 Watkins Street</addr_street>
</property>
<property>
  <property_id>95392</property_id>
  <lat>-37.930028</lat>
  <lng>145.036053</lng>
  <addr_street>28 South Avenue</addr_street>
</property>
<property>
  <property_id>8846</property_id>
  <lat>-37.883179</lat>
  <lng>144.757978</lng>
  <addr_street>13 Haricot Court</addr_street>
</property>
<property>
  <property_id>58637</property_id>
  <lat>-37.814034</lat>
  <lng>145.178811</lng>
  <addr_street>18 Nicholson Street</addr_street>
</property>
<property>
  <property_id>25920</property_id>
  <lat>-37.593183</lat>
  <lng>144.933004</lng>
  <addr_street>20 Southern Crescent</addr_street>
</property>
<property>
  <property_id>18120</property_id>
  <lat>-37.670831</lat>
  <lng>144.936204</lng>
  <addr_street>129 Dallas Drive</addr_street>
</property>
<property>
  <property_id>57792</property_id>
  <lat>-37.81649779999999</lat>
  <lng>145.1559906</lng>
  <addr_street>2/194 Surrey Road</addr_street>
</property>
<property>
  <property_id>8681</property_id>
  <lat>-37.747092</lat>
  <lng>144.745653</lng>
  <addr_street>8 Woodbridge Place</addr_street>
</property>
<property>
  <property_id>60035</property_id>
  <lat>-37.812449</lat>
  <lng>145.205557</lng>
  <addr_street>48 Edgerton Road</addr_street>
</property>
<property>
  <property_id>16326</property_id>
  <lat>-37.695818</lat>
  <lng>144.926422</lng>
  <addr_street>108 View Street</addr_street>
</property>
<property>
  <property_id>13466</property_id>
  <lat>-37.719337</lat>
  <lng>144.767436</lng>
  <addr_street>8 Barley Court</addr_street>
</property>
<property>
  <property_id>86576</property_id>
  <lat>-37.926189</lat>
  <lng>144.998148</lng>
  <addr_street>31 Wolseley Grove</addr_street>
</property>
<property>
  <property_id>21842</property_id>
  <lat>-37.746262</lat>
  <lng>144.972527</lng>
  <addr_street>114 Barrow Street</addr_street>
</property>
<property>
  <property_id>48445</property_id>
  <lat>-37.81129456</lat>
  <lng>145.02746580000004</lng>
  <addr_street>42 Foley Street</addr_street>
</property>
<property>
  <property_id>57352</property_id>
  <lat>-37.82590866</lat>
  <lng>145.0796661</lng>
  <addr_street>52 Maling Road</addr_street>
</property>
<property>
  <property_id>7798</property_id>
  <lat>-37.780168</lat>
  <lng>144.80443200000005</lng>
  <addr_street>24 Maxweld Street</addr_street>
</property>
<property>
  <property_id>91590</property_id>
  <lat>-37.975151</lat>
  <lng>145.038652</lng>
  <addr_street>37 Morey Road</addr_street>
</property>
<property>
  <property_id>30318</property_id>
  <lat>-37.7651</lat>
  <lng>145.010074</lng>
  <addr_street>67A Jenkins Street</addr_street>
</property>
<property>
  <property_id>3503</property_id>
  <lat>-37.81220245</lat>
  <lng>144.89060969999997</lng>
  <addr_street>40 Tongue Street</addr_street>
</property>
<property>
  <property_id>5534</property_id>
  <lat>-37.78077316</lat>
  <lng>144.8469391</lng>
  <addr_street>150 Duke Street</addr_street>
</property>
<property>
  <property_id>27370</property_id>
  <lat>-37.608418</lat>
  <lng>144.918288</lng>
  <addr_street>6 Elmwood Place</addr_street>
</property>
<property>
  <property_id>21051</property_id>
  <lat>-37.764801</lat>
  <lng>144.957724</lng>
  <addr_street>32 Lyle Street</addr_street>
</property>
<property>
  <property_id>36572</property_id>
  <lat>-37.670004</lat>
  <lng>145.033316</lng>
  <addr_street>8 Bunting Court</addr_street>
</property>
<property>
  <property_id>47572</property_id>
  <lat>-37.69648361</lat>
  <lng>145.1728668</lng>
  <addr_street>80 Kalbar Road</addr_street>
</property>
<property>
  <property_id>43097</property_id>
  <lat>-37.716341</lat>
  <lng>145.066809</lng>
  <addr_street>33 Sugarloaf Drive</addr_street>
</property>
<property>
  <property_id>28390</property_id>
  <lat>-37.793894</lat>
  <lng>144.978216</lng>
  <addr_street>71 Cecil Sreet</addr_street>
</property>
<property>
  <property_id>4173</property_id>
  <lat>-37.838528</lat>
  <lng>144.864406</lng>
  <addr_street>17 Hansen Street</addr_street>
</property>
<property>
  <property_id>11183</property_id>
  <lat>-37.76680756</lat>
  <lng>144.8895569</lng>
  <addr_street>17/52 Middle Road</addr_street>
</property>
<property>
  <property_id>44171</property_id>
  <lat>-37.69986343</lat>
  <lng>145.11755369999997</lng>
  <addr_street>117 St Helena Road</addr_street>
</property>
<property>
  <property_id>19355</property_id>
  <lat>-37.65792084</lat>
  <lng>144.9308624</lng>
  <addr_street>2 Kiata Close</addr_street>
</property>
<property>
  <property_id>17493</property_id>
  <lat>-37.706084</lat>
  <lng>144.91488600000002</lng>
  <addr_street>6 Gladstone Parade</addr_street>
</property>
<property>
  <property_id>35371</property_id>
  <lat>-37.69715118</lat>
  <lng>145.0281372</lng>
  <addr_street>62 Tunaley Parade</addr_street>
</property>
<property>
  <property_id>13813</property_id>
  <lat>-37.7575253</lat>
  <lng>144.9105413</lng>
  <addr_street>13 Robb Street</addr_street>
</property>
<property>
  <property_id>767</property_id>
  <lat>-37.79523468</lat>
  <lng>144.8842316</lng>
  <addr_street>28 Leander Street</addr_street>
</property>
<property>
  <property_id>46744</property_id>
  <lat>-37.70412827</lat>
  <lng>145.14785769999997</lng>
  <addr_street>189 Scenic Crescent</addr_street>
</property>
<property>
  <property_id>24643</property_id>
  <lat>-37.678262</lat>
  <lng>144.967225</lng>
  <addr_street>11 Bailey Court</addr_street>
</property>
<property>
  <property_id>87951</property_id>
  <lat>-37.93694305</lat>
  <lng>145.00765990000005</lng>
  <addr_street>79 Willis Street</addr_street>
</property>
<property>
  <property_id>28928</property_id>
  <lat>-37.80988312</lat>
  <lng>145.002655</lng>
  <addr_street>24 Cooke Street</addr_street>
</property>
<property>
  <property_id>39616</property_id>
  <lat>-37.693393</lat>
  <lng>145.044723</lng>
  <addr_street>13 Landbury Road</addr_street>
</property>
<property>
  <property_id>47859</property_id>
  <lat>-37.793576</lat>
  <lng>145.024585</lng>
  <addr_street>13 Hutchinson Drive</addr_street>
</property>
<property>
  <property_id>65900</property_id>
  <lat>-37.767876</lat>
  <lng>145.31798700000004</lng>
  <addr_street>18 Nevados Street</addr_street>
</property>
<property>
  <property_id>64161</property_id>
  <lat>-37.791069</lat>
  <lng>145.281055</lng>
  <addr_street>3 ELIZABETH STREET</addr_street>
</property>
<property>
  <property_id>46565</property_id>
  <lat>-37.70100021</lat>
  <lng>145.1621399</lng>
  <addr_street>13 Ridgeview Street</addr_street>
</property>
<property>
  <property_id>52474</property_id>
  <lat>-37.82229996</lat>
  <lng>145.0057678</lng>
  <addr_street>17 Corsair Street</addr_street>
</property>
<property>
  <property_id>66928</property_id>
  <lat>-37.756054</lat>
  <lng>145.363666</lng>
  <addr_street>11 NORTH ROAD</addr_street>
</property>
<property>
  <property_id>53857</property_id>
  <lat>-37.83034134</lat>
  <lng>144.9947815</lng>
  <addr_street>86 Balmain Street</addr_street>
</property>
<property>
  <property_id>69397</property_id>
  <lat>-37.86904000000001</lat>
  <lng>145.091408</lng>
  <addr_street>1/4 Lancaster Street</addr_street>
</property>
<property>
  <property_id>27352</property_id>
  <lat>-37.585652</lat>
  <lng>144.917649</lng>
  <addr_street>6 Centennial Park Drive</addr_street>
</property>
<property>
  <property_id>33381</property_id>
  <lat>-37.696137</lat>
  <lng>145.009889</lng>
  <addr_street>1 Merrilands Road</addr_street>
</property>
<property>
  <property_id>50736</property_id>
  <lat>-37.782947</lat>
  <lng>145.11078700000004</lng>
  <addr_street>11 Fairway Road</addr_street>
</property>
<property>
  <property_id>43675</property_id>
  <lat>-37.706793</lat>
  <lng>145.080847</lng>
  <addr_street>29 High Street</addr_street>
</property>
<property>
  <property_id>50634</property_id>
  <lat>-37.75467800000001</lat>
  <lng>145.12696</lng>
  <addr_street>80 Atkinson Street</addr_street>
</property>
<property>
  <property_id>45205</property_id>
  <lat>-37.696308</lat>
  <lng>145.107539</lng>
  <addr_street>5 PLENTY RIVER DRIVE</addr_street>
</property>
<property>
  <property_id>90243</property_id>
  <lat>-37.96273</lat>
  <lng>145.053046</lng>
  <addr_street>2/1A Jean St</addr_street>
</property>
<property>
  <property_id>20508</property_id>
  <lat>-37.762515</lat>
  <lng>144.963846</lng>
  <addr_street>14 Eckersall Street</addr_street>
</property>
<property>
  <property_id>77571</property_id>
  <lat>-37.92629</lat>
  <lng>145.171247</lng>
  <addr_street>17 Mangana Drive</addr_street>
</property>
<property>
  <property_id>73214</property_id>
  <lat>-37.86381149</lat>
  <lng>145.27796940000005</lng>
  <addr_street>2/26 Stonehaven Avenue</addr_street>
</property>
<property>
  <property_id>70489</property_id>
  <lat>-37.881463</lat>
  <lng>145.101722</lng>
  <addr_street>119 Waverley Road</addr_street>
</property>
<property>
  <property_id>25046</property_id>
  <lat>-37.585687</lat>
  <lng>144.904299</lng>
  <addr_street>10 Taransay Way</addr_street>
</property>
<property>
  <property_id>85546</property_id>
  <lat>-37.879091</lat>
  <lng>145.013592</lng>
  <addr_street>338 Glen Eira Road</addr_street>
</property>
<property>
  <property_id>24895</property_id>
  <lat>-37.602126</lat>
  <lng>144.93964499999996</lng>
  <addr_street>1 Litton Court</addr_street>
</property>
<property>
  <property_id>54339</property_id>
  <lat>-37.820635</lat>
  <lng>145.024053</lng>
  <addr_street>28 Lennox Street</addr_street>
</property>
<property>
  <property_id>95154</property_id>
  <lat>-37.920372</lat>
  <lng>145.03567900000004</lng>
  <addr_street>21 Burgess Street</addr_street>
</property>
<property>
  <property_id>39651</property_id>
  <lat>-37.694609</lat>
  <lng>145.06075900000005</lng>
  <addr_street>1396 Plenty Road</addr_street>
</property>
<property>
  <property_id>19319</property_id>
  <lat>-37.664505</lat>
  <lng>144.93764199999995</lng>
  <addr_street>11 Kyabram Street</addr_street>
</property>
<property>
  <property_id>73271</property_id>
  <lat>-37.861456</lat>
  <lng>145.262546</lng>
  <addr_street>21 Rathmullen Road</addr_street>
</property>
<property>
  <property_id>11017</property_id>
  <lat>-37.77373123</lat>
  <lng>144.874588</lng>
  <addr_street>1 Saltwater Crescent</addr_street>
</property>
<property>
  <property_id>56233</property_id>
  <lat>-37.855604</lat>
  <lng>145.126933</lng>
  <addr_street>15 Malvina Street</addr_street>
</property>
<property>
  <property_id>78657</property_id>
  <lat>-37.949696</lat>
  <lng>145.147956</lng>
  <addr_street>15 Victoria Avenue</addr_street>
</property>
<property>
  <property_id>81295</property_id>
  <lat>-37.98365</lat>
  <lng>145.228949</lng>
  <addr_street>44 Grandview Avenue</addr_street>
</property>
<property>
  <property_id>17233</property_id>
  <lat>-37.705792</lat>
  <lng>144.929076</lng>
  <addr_street>42 Cardinal Road</addr_street>
</property>
<property>
  <property_id>49594</property_id>
  <lat>-37.807906</lat>
  <lng>145.067552</lng>
  <addr_street>50 Gordon Street</addr_street>
</property>
<property>
  <property_id>30984</property_id>
  <lat>-37.76051712</lat>
  <lng>144.9985199</lng>
  <addr_street>23 Shaftesbury Parade</addr_street>
</property>
<property>
  <property_id>63884</property_id>
  <lat>-37.788011</lat>
  <lng>145.305723</lng>
  <addr_street>2/7 Newman Road</addr_street>
</property>
<property>
  <property_id>23091</property_id>
  <lat>-37.752964</lat>
  <lng>144.951546</lng>
  <addr_street>7 Hawthorn Street</addr_street>
</property>
<property>
  <property_id>26757</property_id>
  <lat>-37.597983</lat>
  <lng>144.924877</lng>
  <addr_street>4 Chinnock Court</addr_street>
</property>
<property>
  <property_id>87371</property_id>
  <lat>-37.935172</lat>
  <lng>145.018445</lng>
  <addr_street>142 Ludstone Street</addr_street>
</property>
<property>
  <property_id>49151</property_id>
  <lat>-37.81316</lat>
  <lng>145.090451</lng>
  <addr_street>1B Parring Road</addr_street>
</property>
<property>
  <property_id>61279</property_id>
  <lat>-37.7860866</lat>
